{
   "type": "FeatureCollection",
   "features": [
  {
    "type": "Feature",
    "geometry": {
       "type": "Point",
       "coordinates":  [ -73.9338214,40.7992278 ]
    },
    "properties": {
    "NAME":"1199 School Social Change"
    }
  },
  {
    "type": "Feature",
    "geometry": {
       "type": "Point",
       "coordinates":  [ -87.2378161,30.4727633 ]
    },
    "properties": {
    "NAME":"A Beka Correspondence School"
    }
  },
  {
    "type": "Feature",
    "geometry": {
       "type": "Point",
       "coordinates":  [ -74.0852622,40.70949 ]
    },
    "properties": {
    "NAME":"A Harry Moore Laboratory Sch"
    }
  },
  {
    "type": "Feature",
    "geometry": {
       "type": "Point",
       "coordinates":  [ -106.6352092,35.0967203 ]
    },
    "properties": {
    "NAME":"A L B a Community School"
    }
  },
  {
    "type": "Feature",
    "geometry": {
       "type": "Point",
       "coordinates":  [ -96.315615,30.5913857 ]
    },
    "properties": {
    "NAME":"A&M Consolidated High School"
    }
  },
  {
    "type": "Feature",
    "geometry": {
       "type": "Point",
       "coordinates":  [ -76.1711603,39.5163227 ]
    },
    "properties": {
    "NAME":"Aberdeen High School"
    }
  },
  {
    "type": "Feature",
    "geometry": {
       "type": "Point",
       "coordinates":  [ -81.9538161,36.7205411 ]
    },
    "properties": {
    "NAME":"Abingdon High School"
    }
  },
  {
    "type": "Feature",
    "geometry": {
       "type": "Point",
       "coordinates":  [ -73.9896602,40.7722881 ]
    },
    "properties": {
    "NAME":"Abraham Joshua Heschel High School"
    }
  },
  {
    "type": "Feature",
    "geometry": {
       "type": "Point",
       "coordinates":  [ -95.8192809,41.2576159 ]
    },
    "properties": {
    "NAME":"Abraham Lincoln High School"
    }
  },
  {
    "type": "Feature",
    "geometry": {
       "type": "Point",
       "coordinates":  [ -89.2991503,43.0724219 ]
    },
    "properties": {
    "NAME":"Abundant Life Christian School"
    }
  },
  {
    "type": "Feature",
    "geometry": {
       "type": "Point",
       "coordinates":  [ -84.2838674,33.7716148 ]
    },
    "properties": {
    "NAME":"Academe of the Oaks"
    }
  },
  {
    "type": "Feature",
    "geometry": {
       "type": "Point",
       "coordinates":  [ -72.825912,42.619192 ]
    },
    "properties": {
    "NAME":"Academy At Charlemont"
    }
  },
  {
    "type": "Feature",
    "geometry": {
       "type": "Point",
       "coordinates":  [ -121.2438988,44.082812 ]
    },
    "properties": {
    "NAME":"Academy At Sisters the"
    }
  },
  {
    "type": "Feature",
    "geometry": {
       "type": "Point",
       "coordinates":  [ -73.8740712,40.6573166 ]
    },
    "properties": {
    "NAME":"Academy For Young Writers"
    }
  },
  {
    "type": "Feature",
    "geometry": {
       "type": "Point",
       "coordinates":  [ -73.9374847,40.7512433 ]
    },
    "properties": {
    "NAME":"Academy of American Studies"
    }
  },
  {
    "type": "Feature",
    "geometry": {
       "type": "Point",
       "coordinates":  [ -80.24446,25.7269882 ]
    },
    "properties": {
    "NAME":"Academy of Arts and Minds"
    }
  },
  {
    "type": "Feature",
    "geometry": {
       "type": "Point",
       "coordinates":  [ -73.9367909,40.7444771 ]
    },
    "properties": {
    "NAME":"Academy of Finance & Enterprise"
    }
  },
  {
    "type": "Feature",
    "geometry": {
       "type": "Point",
       "coordinates":  [ -93.2806949,44.882469 ]
    },
    "properties": {
    "NAME":"Academy of Holy Angels"
    }
  },
  {
    "type": "Feature",
    "geometry": {
       "type": "Point",
       "coordinates":  [ -72.0879238,41.6156804 ]
    },
    "properties": {
    "NAME":"Academy of Holy Family"
    }
  },
  {
    "type": "Feature",
    "geometry": {
       "type": "Point",
       "coordinates":  [ -73.546395,41.0846373 ]
    },
    "properties": {
    "NAME":"Academy of Information Technology and Engineering"
    }
  },
  {
    "type": "Feature",
    "geometry": {
       "type": "Point",
       "coordinates":  [ -71.1320302,42.244227 ]
    },
    "properties": {
    "NAME":"Academy of Pacific Rim"
    }
  },
  {
    "type": "Feature",
    "geometry": {
       "type": "Point",
       "coordinates":  [ -77.0996797,39.031486 ]
    },
    "properties": {
    "NAME":"Academy of the Holy Cross"
    }
  },
  {
    "type": "Feature",
    "geometry": {
       "type": "Point",
       "coordinates":  [ -73.941909,40.6773269 ]
    },
    "properties": {
    "NAME":"Achievement First Brooklyn High School"
    }
  },
  {
    "type": "Feature",
    "geometry": {
       "type": "Point",
       "coordinates":  [ -73.9275874,40.7008178 ]
    },
    "properties": {
    "NAME":"Achievement First University Prep"
    }
  },
  {
    "type": "Feature",
    "geometry": {
       "type": "Point",
       "coordinates":  [ -92.7039907,40.2340505 ]
    },
    "properties": {
    "NAME":"Adair County R-I High School"
    }
  },
  {
    "type": "Feature",
    "geometry": {
       "type": "Point",
       "coordinates":  [ -75.3497631,43.4780714 ]
    },
    "properties": {
    "NAME":"Adirondack Central High Sch"
    }
  },
  {
    "type": "Feature",
    "geometry": {
       "type": "Point",
       "coordinates":  [ -93.719793,32.538095 ]
    },
    "properties": {
    "NAME":"Agape Faith Christian Academy"
    }
  },
  {
    "type": "Feature",
    "geometry": {
       "type": "Point",
       "coordinates":  [ -75.350141,40.028738 ]
    },
    "properties": {
    "NAME":"Agnes Irwin School"
    }
  },
  {
    "type": "Feature",
    "geometry": {
       "type": "Point",
       "coordinates":  [ -84.5045214,39.2087853 ]
    },
    "properties": {
    "NAME":"Alak High School"
    }
  },
  {
    "type": "Feature",
    "geometry": {
       "type": "Point",
       "coordinates":  [ -98.4658617,29.4914404 ]
    },
    "properties": {
    "NAME":"Alamo Heights High School"
    }
  },
  {
    "type": "Feature",
    "geometry": {
       "type": "Point",
       "coordinates":  [ -73.7827007,42.6667618 ]
    },
    "properties": {
    "NAME":"Albany High School"
    }
  },
  {
    "type": "Feature",
    "geometry": {
       "type": "Point",
       "coordinates":  [ -106.5519944,35.151977 ]
    },
    "properties": {
    "NAME":"Albuquerque Academy"
    }
  },
  {
    "type": "Feature",
    "geometry": {
       "type": "Point",
       "coordinates":  [ -106.6352092,35.0967203 ]
    },
    "properties": {
    "NAME":"Albuquerque High School"
    }
  },
  {
    "type": "Feature",
    "geometry": {
       "type": "Point",
       "coordinates":  [ -118.391615,34.034135 ]
    },
    "properties": {
    "NAME":"Alexander Hamilton H S Complex"
    }
  },
  {
    "type": "Feature",
    "geometry": {
       "type": "Point",
       "coordinates":  [ -73.9130973,40.6975906 ]
    },
    "properties": {
    "NAME":"All City Leadership Secondary School"
    }
  },
  {
    "type": "Feature",
    "geometry": {
       "type": "Point",
       "coordinates":  [ -73.9221141,40.8300945 ]
    },
    "properties": {
    "NAME":"All Hallows Institute"
    }
  },
  {
    "type": "Feature",
    "geometry": {
       "type": "Point",
       "coordinates":  [ -77.5379454,43.1174428 ]
    },
    "properties": {
    "NAME":"Allendale Columbia School"
    }
  },
  {
    "type": "Feature",
    "geometry": {
       "type": "Point",
       "coordinates":  [ -81.111242,40.9113719 ]
    },
    "properties": {
    "NAME":"Alliance High School"
    }
  },
  {
    "type": "Feature",
    "geometry": {
       "type": "Point",
       "coordinates":  [ -80.147027,25.9169889 ]
    },
    "properties": {
    "NAME":"Alonzo and Tracy Mourning Senior High School"
    }
  },
  {
    "type": "Feature",
    "geometry": {
       "type": "Point",
       "coordinates":  [ -97.089218,33.217928 ]
    },
    "properties": {
    "NAME":"Alpha Christian Academy"
    }
  },
  {
    "type": "Feature",
    "geometry": {
       "type": "Point",
       "coordinates":  [ -111.733076,40.278558 ]
    },
    "properties": {
    "NAME":"Alpine Summit Programs"
    }
  },
  {
    "type": "Feature",
    "geometry": {
       "type": "Point",
       "coordinates":  [ -86.7582072,33.5137614 ]
    },
    "properties": {
    "NAME":"Altamont School the"
    }
  },
  {
    "type": "Feature",
    "geometry": {
       "type": "Point",
       "coordinates":  [ -80.2264272,40.592352 ]
    },
    "properties": {
    "NAME":"Ambridge Area High School"
    }
  },
  {
    "type": "Feature",
    "geometry": {
       "type": "Point",
       "coordinates":  [ -74.1864976,40.7308356 ]
    },
    "properties": {
    "NAME":"Amercan History High School"
    }
  },
  {
    "type": "Feature",
    "geometry": {
       "type": "Point",
       "coordinates":  [ -118.255787,34.054276 ]
    },
    "properties": {
    "NAME":"American University Preparatory School"
    }
  },
  {
    "type": "Feature",
    "geometry": {
       "type": "Point",
       "coordinates":  [ -72.512935,42.381022 ]
    },
    "properties": {
    "NAME":"Amherst Regional High School"
    }
  },
  {
    "type": "Feature",
    "geometry": {
       "type": "Point",
       "coordinates":  [ -73.0077248,41.3575551 ]
    },
    "properties": {
    "NAME":"Amity Regional High School"
    }
  },
  {
    "type": "Feature",
    "geometry": {
       "type": "Point",
       "coordinates":  [ -97.1330773,37.7172887 ]
    },
    "properties": {
    "NAME":"Andover High School"
    }
  },
  {
    "type": "Feature",
    "geometry": {
       "type": "Point",
       "coordinates":  [ -107.9185049,37.268016 ]
    },
    "properties": {
    "NAME":"Animas High School"
    }
  },
  {
    "type": "Feature",
    "geometry": {
       "type": "Point",
       "coordinates":  [ -76.5654433,38.9745307 ]
    },
    "properties": {
    "NAME":"Annapolis Senior High School"
    }
  },
  {
    "type": "Feature",
    "geometry": {
       "type": "Point",
       "coordinates":  [ -112.1586701,33.5551201 ]
    },
    "properties": {
    "NAME":"Apollo High School"
    }
  },
  {
    "type": "Feature",
    "geometry": {
       "type": "Point",
       "coordinates":  [ -77.411616,37.226019 ]
    },
    "properties": {
    "NAME":"Appomattox Regional Governor's School"
    }
  },
  {
    "type": "Feature",
    "geometry": {
       "type": "Point",
       "coordinates":  [ -75.7472335,39.4538159 ]
    },
    "properties": {
    "NAME":"Appoquinimink High School"
    }
  },
  {
    "type": "Feature",
    "geometry": {
       "type": "Point",
       "coordinates":  [ -94.740104,38.9221637 ]
    },
    "properties": {
    "NAME":"Aquinas High School"
    }
  },
  {
    "type": "Feature",
    "geometry": {
       "type": "Point",
       "coordinates":  [ -118.471615,34.0650914 ]
    },
    "properties": {
    "NAME":"Archer School for Girls"
    }
  },
  {
    "type": "Feature",
    "geometry": {
       "type": "Point",
       "coordinates":  [ -112.0696903,33.4644058 ]
    },
    "properties": {
    "NAME":"Arizona Sch for the Arts"
    }
  },
  {
    "type": "Feature",
    "geometry": {
       "type": "Point",
       "coordinates":  [ -97.1167816,32.7207851 ]
    },
    "properties": {
    "NAME":"Arlington High School"
    }
  },
  {
    "type": "Feature",
    "geometry": {
       "type": "Point",
       "coordinates":  [ -93.4171235,45.02008 ]
    },
    "properties": {
    "NAME":"Armstrong High School"
    }
  },
  {
    "type": "Feature",
    "geometry": {
       "type": "Point",
       "coordinates":  [ -117.7824673,33.7176204 ]
    },
    "properties": {
    "NAME":"Arnold O Beckman High School"
    }
  },
  {
    "type": "Feature",
    "geometry": {
       "type": "Point",
       "coordinates":  [ -118.0749565,33.8436104 ]
    },
    "properties": {
    "NAME":"Artesia High School"
    }
  },
  {
    "type": "Feature",
    "geometry": {
       "type": "Point",
       "coordinates":  [ -94.122102,36.331095 ]
    },
    "properties": {
    "NAME":"Arts High School"
    }
  },
  {
    "type": "Feature",
    "geometry": {
       "type": "Point",
       "coordinates":  [ -82.624275,35.564405 ]
    },
    "properties": {
    "NAME":"Asheville School"
    }
  },
  {
    "type": "Feature",
    "geometry": {
       "type": "Point",
       "coordinates":  [ -92.2383098,40.9610072 ]
    },
    "properties": {
    "NAME":"Ashland Community High School"
    }
  },
  {
    "type": "Feature",
    "geometry": {
       "type": "Point",
       "coordinates":  [ -121.9501448,37.8339648 ]
    },
    "properties": {
    "NAME":"Athenian School"
    }
  },
  {
    "type": "Feature",
    "geometry": {
       "type": "Point",
       "coordinates":  [ -86.949774,34.8033536 ]
    },
    "properties": {
    "NAME":"Athens High School"
    }
  },
  {
    "type": "Feature",
    "geometry": {
       "type": "Point",
       "coordinates":  [ -76.880307,39.188227 ]
    },
    "properties": {
    "NAME":"Atholton High School"
    }
  },
  {
    "type": "Feature",
    "geometry": {
       "type": "Point",
       "coordinates":  [ -84.4241285,33.843208 ]
    },
    "properties": {
    "NAME":"Atlanta Girls School"
    }
  },
  {
    "type": "Feature",
    "geometry": {
       "type": "Point",
       "coordinates":  [ -84.3781746,33.8331574 ]
    },
    "properties": {
    "NAME":"Atlanta International School"
    }
  },
  {
    "type": "Feature",
    "geometry": {
       "type": "Point",
       "coordinates":  [ -81.0271549,29.1492964 ]
    },
    "properties": {
    "NAME":"Atlantic High School"
    }
  },
  {
    "type": "Feature",
    "geometry": {
       "type": "Point",
       "coordinates":  [ -80.1921486,26.2428356 ]
    },
    "properties": {
    "NAME":"Atlantic Technical Center Magnet High School"
    }
  },
  {
    "type": "Feature",
    "geometry": {
       "type": "Point",
       "coordinates":  [ -106.7486202,35.022282 ]
    },
    "properties": {
    "NAME":"Atrisco Heritage Academy"
    }
  },
  {
    "type": "Feature",
    "geometry": {
       "type": "Point",
       "coordinates":  [ -88.3440373,41.7642897 ]
    },
    "properties": {
    "NAME":"Aurora West High School"
    }
  },
  {
    "type": "Feature",
    "geometry": {
       "type": "Point",
       "coordinates":  [ -88.9951859,40.5068919 ]
    },
    "properties": {
    "NAME":"Avanti"
    }
  },
  {
    "type": "Feature",
    "geometry": {
       "type": "Point",
       "coordinates":  [ -74.0033322,40.7494279 ]
    },
    "properties": {
    "NAME":"Avenues: The World School"
    }
  },
  {
    "type": "Feature",
    "geometry": {
       "type": "Point",
       "coordinates":  [ -73.5122928,42.6285988 ]
    },
    "properties": {
    "NAME":"Averill Park High School"
    }
  },
  {
    "type": "Feature",
    "geometry": {
       "type": "Point",
       "coordinates":  [ -80.0785809,40.5323187 ]
    },
    "properties": {
    "NAME":"Avonworth Jr-Sr High School"
    }
  },
  {
    "type": "Feature",
    "geometry": {
       "type": "Point",
       "coordinates":  [ -79.8471119,36.034726 ]
    },
    "properties": {
    "NAME":"B L Smith Senior High School"
    }
  },
  {
    "type": "Feature",
    "geometry": {
       "type": "Point",
       "coordinates":  [ -122.4407711,37.7215796 ]
    },
    "properties": {
    "NAME":"Balboa High School"
    }
  },
  {
    "type": "Feature",
    "geometry": {
       "type": "Point",
       "coordinates":  [ -85.6250179,38.2834687 ]
    },
    "properties": {
    "NAME":"Ballard High School"
    }
  },
  {
    "type": "Feature",
    "geometry": {
       "type": "Point",
       "coordinates":  [ -76.644101,39.3468784 ]
    },
    "properties": {
    "NAME":"Baltimore Polytechnic Inst"
    }
  },
  {
    "type": "Feature",
    "geometry": {
       "type": "Point",
       "coordinates":  [ -76.6172186,39.2983569 ]
    },
    "properties": {
    "NAME":"Baltimore School for the Arts"
    }
  },
  {
    "type": "Feature",
    "geometry": {
       "type": "Point",
       "coordinates":  [ -80.3454889,25.9023521 ]
    },
    "properties": {
    "NAME":"Barbara Goleman High School"
    }
  },
  {
    "type": "Feature",
    "geometry": {
       "type": "Point",
       "coordinates":  [ -95.3323554,29.8119983 ]
    },
    "properties": {
    "NAME":"Barbara Jordan High School"
    }
  },
  {
    "type": "Feature",
    "geometry": {
       "type": "Point",
       "coordinates":  [ -73.9760185,40.7182547 ]
    },
    "properties": {
    "NAME":"Bard High School Early College"
    }
  },
  {
    "type": "Feature",
    "geometry": {
       "type": "Point",
       "coordinates":  [ -81.7612696,26.2166392 ]
    },
    "properties": {
    "NAME":"Barron Collier High School"
    }
  },
  {
    "type": "Feature",
    "geometry": {
       "type": "Point",
       "coordinates":  [ -94.6051749,38.918111 ]
    },
    "properties": {
    "NAME":"Barstow School"
    }
  },
  {
    "type": "Feature",
    "geometry": {
       "type": "Point",
       "coordinates":  [ -73.985909,40.7418485 ]
    },
    "properties": {
    "NAME":"Baruch College Campus Hs"
    }
  },
  {
    "type": "Feature",
    "geometry": {
       "type": "Point",
       "coordinates":  [ -110.9447176,32.409382 ]
    },
    "properties": {
    "NAME":"BASIS Oro Valley"
    }
  },
  {
    "type": "Feature",
    "geometry": {
       "type": "Point",
       "coordinates":  [ -110.8711165,32.2728805 ]
    },
    "properties": {
    "NAME":"BASIS Tucson North"
    }
  },
  {
    "type": "Feature",
    "geometry": {
       "type": "Point",
       "coordinates":  [ -122.455646,37.8007795 ]
    },
    "properties": {
    "NAME":"Bay School of San Francisco"
    }
  },
  {
    "type": "Feature",
    "geometry": {
       "type": "Point",
       "coordinates":  [ -74.0025474,40.7433679 ]
    },
    "properties": {
    "NAME":"Bayard Rustin Hs Humanities"
    }
  },
  {
    "type": "Feature",
    "geometry": {
       "type": "Point",
       "coordinates":  [ -85.3373862,35.0862658 ]
    },
    "properties": {
    "NAME":"Baylor School"
    }
  },
  {
    "type": "Feature",
    "geometry": {
       "type": "Point",
       "coordinates":  [ -73.7810639,40.7714489 ]
    },
    "properties": {
    "NAME":"Bayside High School"
    }
  },
  {
    "type": "Feature",
    "geometry": {
       "type": "Point",
       "coordinates":  [ -79.4007609,43.7661156 ]
    },
    "properties": {
    "NAME":"Bayview Adult School"
    }
  },
  {
    "type": "Feature",
    "geometry": {
       "type": "Point",
       "coordinates":  [ -73.8234853,40.5865189 ]
    },
    "properties": {
    "NAME":"Beach Channel High School"
    }
  },
  {
    "type": "Feature",
    "geometry": {
       "type": "Point",
       "coordinates":  [ -81.5013459,41.4840561 ]
    },
    "properties": {
    "NAME":"Beachwood High School"
    }
  },
  {
    "type": "Feature",
    "geometry": {
       "type": "Point",
       "coordinates":  [ -93.3710852,45.0188836 ]
    },
    "properties": {
    "NAME":"Beacon Academy"
    }
  },
  {
    "type": "Feature",
    "geometry": {
       "type": "Point",
       "coordinates":  [ -73.9959894,40.7613951 ]
    },
    "properties": {
    "NAME":"Beacon High School"
    }
  },
  {
    "type": "Feature",
    "geometry": {
       "type": "Point",
       "coordinates":  [ -94.4961359,37.0747262 ]
    },
    "properties": {
    "NAME":"Beacon School"
    }
  },
  {
    "type": "Feature",
    "geometry": {
       "type": "Point",
       "coordinates":  [ -84.0570333,35.9203185 ]
    },
    "properties": {
    "NAME":"Bearden High School"
    }
  },
  {
    "type": "Feature",
    "geometry": {
       "type": "Point",
       "coordinates":  [ -71.1651109,42.3182503 ]
    },
    "properties": {
    "NAME":"Beaver Country Day School"
    }
  },
  {
    "type": "Feature",
    "geometry": {
       "type": "Point",
       "coordinates":  [ -83.4932839,42.2030303 ]
    },
    "properties": {
    "NAME":"Belleville High School"
    }
  },
  {
    "type": "Feature",
    "geometry": {
       "type": "Point",
       "coordinates":  [ -122.2110315,47.6254462 ]
    },
    "properties": {
    "NAME":"Bellevue Christian School"
    }
  },
  {
    "type": "Feature",
    "geometry": {
       "type": "Point",
       "coordinates":  [ -122.4742389,48.7566896 ]
    },
    "properties": {
    "NAME":"Bellingham High School"
    }
  },
  {
    "type": "Feature",
    "geometry": {
       "type": "Point",
       "coordinates":  [ -72.4433009,43.1189057 ]
    },
    "properties": {
    "NAME":"Bellows Falls Union High Sch"
    }
  },
  {
    "type": "Feature",
    "geometry": {
       "type": "Point",
       "coordinates":  [ -71.1652225,42.39523 ]
    },
    "properties": {
    "NAME":"Belmont High School"
    }
  },
  {
    "type": "Feature",
    "geometry": {
       "type": "Point",
       "coordinates":  [ -71.1831833,42.4059072 ]
    },
    "properties": {
    "NAME":"Belmont Hill School"
    }
  },
  {
    "type": "Feature",
    "geometry": {
       "type": "Point",
       "coordinates":  [ -122.1756587,38.0648321 ]
    },
    "properties": {
    "NAME":"Benicia High School"
    }
  },
  {
    "type": "Feature",
    "geometry": {
       "type": "Point",
       "coordinates":  [ -77.0240037,38.923686 ]
    },
    "properties": {
    "NAME":"Benjamin Banneker Academic H S"
    }
  },
  {
    "type": "Feature",
    "geometry": {
       "type": "Point",
       "coordinates":  [ -73.9687151,40.6955429 ]
    },
    "properties": {
    "NAME":"Benjamin Banneker Academy"
    }
  },
  {
    "type": "Feature",
    "geometry": {
       "type": "Point",
       "coordinates":  [ -73.7565313,40.7519018 ]
    },
    "properties": {
    "NAME":"Benjamin Cardozo High School"
    }
  },
  {
    "type": "Feature",
    "geometry": {
       "type": "Point",
       "coordinates":  [ -90.0654818,30.0246406 ]
    },
    "properties": {
    "NAME":"Benjamin Franklin High School"
    }
  },
  {
    "type": "Feature",
    "geometry": {
       "type": "Point",
       "coordinates":  [ -74.9315159,40.1127049 ]
    },
    "properties": {
    "NAME":"Bensalem High School"
    }
  },
  {
    "type": "Feature",
    "geometry": {
       "type": "Point",
       "coordinates":  [ -122.2337497,37.8530695 ]
    },
    "properties": {
    "NAME":"Bentley School"
    }
  },
  {
    "type": "Feature",
    "geometry": {
       "type": "Point",
       "coordinates":  [ -73.9737283,40.6756927 ]
    },
    "properties": {
    "NAME":"Berkeley Carroll School"
    }
  },
  {
    "type": "Feature",
    "geometry": {
       "type": "Point",
       "coordinates":  [ -122.271769,37.868012 ]
    },
    "properties": {
    "NAME":"Berkeley High School"
    }
  },
  {
    "type": "Feature",
    "geometry": {
       "type": "Point",
       "coordinates":  [ -122.2862707,37.869536 ]
    },
    "properties": {
    "NAME":"Berkeley School"
    }
  },
  {
    "type": "Feature",
    "geometry": {
       "type": "Point",
       "coordinates":  [ -83.180513,42.495668 ]
    },
    "properties": {
    "NAME":"Berkley High School"
    }
  },
  {
    "type": "Feature",
    "geometry": {
       "type": "Point",
       "coordinates":  [ -73.4162715,42.1170873 ]
    },
    "properties": {
    "NAME":"Berkshire School"
    }
  },
  {
    "type": "Feature",
    "geometry": {
       "type": "Point",
       "coordinates":  [ -97.6315609,35.5166481 ]
    },
    "properties": {
    "NAME":"Bethany High School"
    }
  },
  {
    "type": "Feature",
    "geometry": {
       "type": "Point",
       "coordinates":  [ -77.0885041,38.9864928 ]
    },
    "properties": {
    "NAME":"Bethesda Chevy-Chase High School"
    }
  },
  {
    "type": "Feature",
    "geometry": {
       "type": "Point",
       "coordinates":  [ -108.5710394,45.7727577 ]
    },
    "properties": {
    "NAME":"Billings West High School"
    }
  },
  {
    "type": "Feature",
    "geometry": {
       "type": "Point",
       "coordinates":  [ -77.161057,38.894547 ]
    },
    "properties": {
    "NAME":"Bishop Denis J Oconnell High S"
    }
  },
  {
    "type": "Feature",
    "geometry": {
       "type": "Point",
       "coordinates":  [ -115.3182083,36.0819255 ]
    },
    "properties": {
    "NAME":"Bishop Gorman High School"
    }
  },
  {
    "type": "Feature",
    "geometry": {
       "type": "Point",
       "coordinates":  [ -85.1334922,41.0333173 ]
    },
    "properties": {
    "NAME":"Bishop Luers High School"
    }
  },
  {
    "type": "Feature",
    "geometry": {
       "type": "Point",
       "coordinates":  [ -76.888087,38.852673 ]
    },
    "properties": {
    "NAME":"Bishop McNamara High School"
    }
  },
  {
    "type": "Feature",
    "geometry": {
       "type": "Point",
       "coordinates":  [ -117.278323,32.841252 ]
    },
    "properties": {
    "NAME":"Bishop's School the"
    }
  },
  {
    "type": "Feature",
    "geometry": {
       "type": "Point",
       "coordinates":  [ -74.9637557,40.9860162 ]
    },
    "properties": {
    "NAME":"Blair Academy"
    }
  },
  {
    "type": "Feature",
    "geometry": {
       "type": "Point",
       "coordinates":  [ -77.011656,39.0183042 ]
    },
    "properties": {
    "NAME":"Blair High School"
    }
  },
  {
    "type": "Feature",
    "geometry": {
       "type": "Point",
       "coordinates":  [ -79.437146,43.6592415 ]
    },
    "properties": {
    "NAME":"Bloor Collegiate Institute"
    }
  },
  {
    "type": "Feature",
    "geometry": {
       "type": "Point",
       "coordinates":  [ -98.7050872,29.7860613 ]
    },
    "properties": {
    "NAME":"Boerne Samuel V. Champion High School"
    }
  },
  {
    "type": "Feature",
    "geometry": {
       "type": "Point",
       "coordinates":  [ -87.7215981,41.7491695 ]
    },
    "properties": {
    "NAME":"Bogan High School"
    }
  },
  {
    "type": "Feature",
    "geometry": {
       "type": "Point",
       "coordinates":  [ -117.9644852,33.7611217 ]
    },
    "properties": {
    "NAME":"Bolsa Grande High School"
    }
  },
  {
    "type": "Feature",
    "geometry": {
       "type": "Point",
       "coordinates":  [ -95.9708218,36.1887559 ]
    },
    "properties": {
    "NAME":"Booker T Washington High Sch"
    }
  },
  {
    "type": "Feature",
    "geometry": {
       "type": "Point",
       "coordinates":  [ -80.2041517,25.7861013 ]
    },
    "properties": {
    "NAME":"Booker T Washington Sr High Sc"
    }
  },
  {
    "type": "Feature",
    "geometry": {
       "type": "Point",
       "coordinates":  [ -90.7022863,43.129519 ]
    },
    "properties": {
    "NAME":"Boscobel High School"
    }
  },
  {
    "type": "Feature",
    "geometry": {
       "type": "Point",
       "coordinates":  [ -71.0884448,42.3311167 ]
    },
    "properties": {
    "NAME":"Boston Central Adult Eve Sch"
    }
  },
  {
    "type": "Feature",
    "geometry": {
       "type": "Point",
       "coordinates":  [ -71.1011237,42.3378831 ]
    },
    "properties": {
    "NAME":"Boston Latin School"
    }
  },
  {
    "type": "Feature",
    "geometry": {
       "type": "Point",
       "coordinates":  [ -71.128873,42.259069 ]
    },
    "properties": {
    "NAME":"Boston Trinity Academy"
    }
  },
  {
    "type": "Feature",
    "geometry": {
       "type": "Point",
       "coordinates":  [ -105.2747061,40.013811 ]
    },
    "properties": {
    "NAME":"Boulder High School"
    }
  },
  {
    "type": "Feature",
    "geometry": {
       "type": "Point",
       "coordinates":  [ -73.9316585,40.6789227 ]
    },
    "properties": {
    "NAME":"Boys and Girls High School"
    }
  },
  {
    "type": "Feature",
    "geometry": {
       "type": "Point",
       "coordinates":  [ -122.5665711,37.9645255 ]
    },
    "properties": {
    "NAME":"Branson School the"
    }
  },
  {
    "type": "Feature",
    "geometry": {
       "type": "Point",
       "coordinates":  [ -80.0182092,40.4191002 ]
    },
    "properties": {
    "NAME":"Brashear High School"
    }
  },
  {
    "type": "Feature",
    "geometry": {
       "type": "Point",
       "coordinates":  [ -72.561267,42.836739 ]
    },
    "properties": {
    "NAME":"Brattleboro Union High School"
    }
  },
  {
    "type": "Feature",
    "geometry": {
       "type": "Point",
       "coordinates":  [ -95.3718424,28.9589998 ]
    },
    "properties": {
    "NAME":"Brazosport High School"
    }
  },
  {
    "type": "Feature",
    "geometry": {
       "type": "Point",
       "coordinates":  [ -73.9454309,40.7724795 ]
    },
    "properties": {
    "NAME":"Brearley School"
    }
  },
  {
    "type": "Feature",
    "geometry": {
       "type": "Point",
       "coordinates":  [ -93.3418426,44.9807698 ]
    },
    "properties": {
    "NAME":"Breck School"
    }
  },
  {
    "type": "Feature",
    "geometry": {
       "type": "Point",
       "coordinates":  [ -118.468795,34.067168 ]
    },
    "properties": {
    "NAME":"Brentwood School"
    }
  },
  {
    "type": "Feature",
    "geometry": {
       "type": "Point",
       "coordinates":  [ -74.8448531,40.1083642 ]
    },
    "properties": {
    "NAME":"Bristol Jr-Sr High School"
    }
  },
  {
    "type": "Feature",
    "geometry": {
       "type": "Point",
       "coordinates":  [ -73.925999,40.81366 ]
    },
    "properties": {
    "NAME":"Bronx Academy of Letters"
    }
  },
  {
    "type": "Feature",
    "geometry": {
       "type": "Point",
       "coordinates":  [ -73.9027472,40.8339721 ]
    },
    "properties": {
    "NAME":"Bronx Center for Science and Mathematics"
    }
  },
  {
    "type": "Feature",
    "geometry": {
       "type": "Point",
       "coordinates":  [ -73.9175579,40.8281781 ]
    },
    "properties": {
    "NAME":"Bronx Early College Academy"
    }
  },
  {
    "type": "Feature",
    "geometry": {
       "type": "Point",
       "coordinates":  [ -73.8907414,40.8363157 ]
    },
    "properties": {
    "NAME":"Bronx Envision Academy"
    }
  },
  {
    "type": "Feature",
    "geometry": {
       "type": "Point",
       "coordinates":  [ -73.8333032,40.8740126 ]
    },
    "properties": {
    "NAME":"Bronx Health Science High School"
    }
  },
  {
    "type": "Feature",
    "geometry": {
       "type": "Point",
       "coordinates":  [ -73.890843,40.8783054 ]
    },
    "properties": {
    "NAME":"Bronx High School of Science"
    }
  },
  {
    "type": "Feature",
    "geometry": {
       "type": "Point",
       "coordinates":  [ -73.9031094,40.8434287 ]
    },
    "properties": {
    "NAME":"Bronx Leadership Acad High Sch"
    }
  },
  {
    "type": "Feature",
    "geometry": {
       "type": "Point",
       "coordinates":  [ -73.897151,40.8234049 ]
    },
    "properties": {
    "NAME":"Bronx Lighthouse Charter School"
    }
  },
  {
    "type": "Feature",
    "geometry": {
       "type": "Point",
       "coordinates":  [ -73.9190153,40.827493 ]
    },
    "properties": {
    "NAME":"Bronx Sch Law Govmt & Justice"
    }
  },
  {
    "type": "Feature",
    "geometry": {
       "type": "Point",
       "coordinates":  [ -73.8929382,40.8203983 ]
    },
    "properties": {
    "NAME":"Bronx Studio School for Writers and Artists"
    }
  },
  {
    "type": "Feature",
    "geometry": {
       "type": "Point",
       "coordinates":  [ -71.1291087,42.3331401 ]
    },
    "properties": {
    "NAME":"Brookline High School"
    }
  },
  {
    "type": "Feature",
    "geometry": {
       "type": "Point",
       "coordinates":  [ -93.2976911,45.0738661 ]
    },
    "properties": {
    "NAME":"Brooklyn Center High School"
    }
  },
  {
    "type": "Feature",
    "geometry": {
       "type": "Point",
       "coordinates":  [ -73.9718961,40.6492022 ]
    },
    "properties": {
    "NAME":"Brooklyn College Academy"
    }
  },
  {
    "type": "Feature",
    "geometry": {
       "type": "Point",
       "coordinates":  [ -73.9878238,40.6928016 ]
    },
    "properties": {
    "NAME":"Brooklyn Friends School"
    }
  },
  {
    "type": "Feature",
    "geometry": {
       "type": "Point",
       "coordinates":  [ -73.9610552,40.6700279 ]
    },
    "properties": {
    "NAME":"Brooklyn High School for Music and Thearte"
    }
  },
  {
    "type": "Feature",
    "geometry": {
       "type": "Point",
       "coordinates":  [ -73.9439647,40.7103297 ]
    },
    "properties": {
    "NAME":"Brooklyn Latin School"
    }
  },
  {
    "type": "Feature",
    "geometry": {
       "type": "Point",
       "coordinates":  [ -73.9549291,40.7154197 ]
    },
    "properties": {
    "NAME":"Brooklyn Prep High School"
    }
  },
  {
    "type": "Feature",
    "geometry": {
       "type": "Point",
       "coordinates":  [ -73.9767165,40.6889546 ]
    },
    "properties": {
    "NAME":"Brooklyn Technical High School"
    }
  },
  {
    "type": "Feature",
    "geometry": {
       "type": "Point",
       "coordinates":  [ -71.085589,42.707446 ]
    },
    "properties": {
    "NAME":"Brooks School"
    }
  },
  {
    "type": "Feature",
    "geometry": {
       "type": "Point",
       "coordinates":  [ -84.0400713,33.8836398 ]
    },
    "properties": {
    "NAME":"Brookwood High School"
    }
  },
  {
    "type": "Feature",
    "geometry": {
       "type": "Point",
       "coordinates":  [ -118.1543353,33.7963901 ]
    },
    "properties": {
    "NAME":"Browning High School"
    }
  },
  {
    "type": "Feature",
    "geometry": {
       "type": "Point",
       "coordinates":  [ -73.9692663,40.765039 ]
    },
    "properties": {
    "NAME":"Browning School"
    }
  },
  {
    "type": "Feature",
    "geometry": {
       "type": "Point",
       "coordinates":  [ -81.8154754,41.2416194 ]
    },
    "properties": {
    "NAME":"Brunswick High School"
    }
  },
  {
    "type": "Feature",
    "geometry": {
       "type": "Point",
       "coordinates":  [ -73.626072,41.038436 ]
    },
    "properties": {
    "NAME":"Brunswick School"
    }
  },
  {
    "type": "Feature",
    "geometry": {
       "type": "Point",
       "coordinates":  [ -76.62987,39.36443 ]
    },
    "properties": {
    "NAME":"Bryn Mawr School"
    }
  },
  {
    "type": "Feature",
    "geometry": {
       "type": "Point",
       "coordinates":  [ -118.4432601,34.1405181 ]
    },
    "properties": {
    "NAME":"Buckley School the"
    }
  },
  {
    "type": "Feature",
    "geometry": {
       "type": "Point",
       "coordinates":  [ -74.8516419,40.0701318 ]
    },
    "properties": {
    "NAME":"Burlington City High School"
    }
  },
  {
    "type": "Feature",
    "geometry": {
       "type": "Point",
       "coordinates":  [ -73.077354,43.163803 ]
    },
    "properties": {
    "NAME":"Burr and Burton Academy"
    }
  },
  {
    "type": "Feature",
    "geometry": {
       "type": "Point",
       "coordinates":  [ -73.9904866,40.7639937 ]
    },
    "properties": {
    "NAME":"Business of Sports School"
    }
  },
  {
    "type": "Feature",
    "geometry": {
       "type": "Point",
       "coordinates":  [ -73.6897724,41.1346788 ]
    },
    "properties": {
    "NAME":"Byram Hills High School"
    }
  },
  {
    "type": "Feature",
    "geometry": {
       "type": "Point",
       "coordinates":  [ -118.2158198,33.7940838 ]
    },
    "properties": {
    "NAME":"Cabrillo High School"
    }
  },
  {
    "type": "Feature",
    "geometry": {
       "type": "Point",
       "coordinates":  [ -93.7198092,32.4973044 ]
    },
    "properties": {
    "NAME":"Caddo Parish Magnet High Sch"
    }
  },
  {
    "type": "Feature",
    "geometry": {
       "type": "Point",
       "coordinates":  [ -73.98055,40.785621 ]
    },
    "properties": {
    "NAME":"Calhoun School"
    }
  },
  {
    "type": "Feature",
    "geometry": {
       "type": "Point",
       "coordinates":  [ -118.2547207,33.8611018 ]
    },
    "properties": {
    "NAME":"California Acad Math & Science"
    }
  },
  {
    "type": "Feature",
    "geometry": {
       "type": "Point",
       "coordinates":  [ -71.1116098,42.3744044 ]
    },
    "properties": {
    "NAME":"Cambridge Rindge and Latin Sch"
    }
  },
  {
    "type": "Feature",
    "geometry": {
       "type": "Point",
       "coordinates":  [ -71.272016,42.385628 ]
    },
    "properties": {
    "NAME":"Cambridge School of Weston"
    }
  },
  {
    "type": "Feature",
    "geometry": {
       "type": "Point",
       "coordinates":  [ -75.0981776,39.935522 ]
    },
    "properties": {
    "NAME":"Camden High School"
    }
  },
  {
    "type": "Feature",
    "geometry": {
       "type": "Point",
       "coordinates":  [ -91.028371,40.064006 ]
    },
    "properties": {
    "NAME":"Camp Point Central High School"
    }
  },
  {
    "type": "Feature",
    "geometry": {
       "type": "Point",
       "coordinates":  [ -73.411994,41.586524 ]
    },
    "properties": {
    "NAME":"Canterbury School"
    }
  },
  {
    "type": "Feature",
    "geometry": {
       "type": "Point",
       "coordinates":  [ -82.620883,27.825135 ]
    },
    "properties": {
    "NAME":"Canterbury School of Florida"
    }
  },
  {
    "type": "Feature",
    "geometry": {
       "type": "Point",
       "coordinates":  [ -95.8876593,32.5450845 ]
    },
    "properties": {
    "NAME":"Canton High School"
    }
  },
  {
    "type": "Feature",
    "geometry": {
       "type": "Point",
       "coordinates":  [ -97.4325817,38.3810941 ]
    },
    "properties": {
    "NAME":"Canton Jr-Sr High School"
    }
  },
  {
    "type": "Feature",
    "geometry": {
       "type": "Point",
       "coordinates":  [ -75.1652659,39.939394 ]
    },
    "properties": {
    "NAME":"CAPA High School"
    }
  },
  {
    "type": "Feature",
    "geometry": {
       "type": "Point",
       "coordinates":  [ -70.2295928,43.5909474 ]
    },
    "properties": {
    "NAME":"Cape Elizabeth High School"
    }
  },
  {
    "type": "Feature",
    "geometry": {
       "type": "Point",
       "coordinates":  [ -117.6697936,33.5415426 ]
    },
    "properties": {
    "NAME":"Capistrano Valley High School"
    }
  },
  {
    "type": "Feature",
    "geometry": {
       "type": "Point",
       "coordinates":  [ -73.9253745,40.8207116 ]
    },
    "properties": {
    "NAME":"Cardinal Hayes High School"
    }
  },
  {
    "type": "Feature",
    "geometry": {
       "type": "Point",
       "coordinates":  [ -97.2381583,37.6948445 ]
    },
    "properties": {
    "NAME":"Carmel High School"
    }
  },
  {
    "type": "Feature",
    "geometry": {
       "type": "Point",
       "coordinates":  [ -95.385084,29.753991 ]
    },
    "properties": {
    "NAME":"Carnegie Vanguard High School"
    }
  },
  {
    "type": "Feature",
    "geometry": {
       "type": "Point",
       "coordinates":  [ -79.0855759,35.891958 ]
    },
    "properties": {
    "NAME":"Carrboro High School"
    }
  },
  {
    "type": "Feature",
    "geometry": {
       "type": "Point",
       "coordinates":  [ -79.9893781,40.390883 ]
    },
    "properties": {
    "NAME":"Carrick High School"
    }
  },
  {
    "type": "Feature",
    "geometry": {
       "type": "Point",
       "coordinates":  [ -97.4365348,37.6933448 ]
    },
    "properties": {
    "NAME":"Carroll High School"
    }
  },
  {
    "type": "Feature",
    "geometry": {
       "type": "Point",
       "coordinates":  [ -90.0679509,35.1045176 ]
    },
    "properties": {
    "NAME":"Carver High School"
    }
  },
  {
    "type": "Feature",
    "geometry": {
       "type": "Point",
       "coordinates":  [ -70.294384,43.6973941 ]
    },
    "properties": {
    "NAME":"Casco Bay High School"
    }
  },
  {
    "type": "Feature",
    "geometry": {
       "type": "Point",
       "coordinates":  [ -122.1522075,37.4386962 ]
    },
    "properties": {
    "NAME":"Castilleja School"
    }
  },
  {
    "type": "Feature",
    "geometry": {
       "type": "Point",
       "coordinates":  [ -122.076554,37.7043096 ]
    },
    "properties": {
    "NAME":"Castro Valley High School"
    }
  },
  {
    "type": "Feature",
    "geometry": {
       "type": "Point",
       "coordinates":  [ -119.4773809,34.405005 ]
    },
    "properties": {
    "NAME":"Cate School"
    }
  },
  {
    "type": "Feature",
    "geometry": {
       "type": "Point",
       "coordinates":  [ -80.0014986,37.2134145 ]
    },
    "properties": {
    "NAME":"Cave Spring High School"
    }
  },
  {
    "type": "Feature",
    "geometry": {
       "type": "Point",
       "coordinates":  [ -96.9666933,38.5223739 ]
    },
    "properties": {
    "NAME":"Center High School"
    }
  },
  {
    "type": "Feature",
    "geometry": {
       "type": "Point",
       "coordinates":  [ -75.0562977,40.3392092 ]
    },
    "properties": {
    "NAME":"Central Bucks High School East"
    }
  },
  {
    "type": "Feature",
    "geometry": {
       "type": "Point",
       "coordinates":  [ -93.6418059,41.5838341 ]
    },
    "properties": {
    "NAME":"Central Campus"
    }
  },
  {
    "type": "Feature",
    "geometry": {
       "type": "Point",
       "coordinates":  [ -98.485954,29.436152 ]
    },
    "properties": {
    "NAME":"Central Catholic High School"
    }
  },
  {
    "type": "Feature",
    "geometry": {
       "type": "Point",
       "coordinates":  [ -96.0271166,36.162906 ]
    },
    "properties": {
    "NAME":"Central High School"
    }
  },
  {
    "type": "Feature",
    "geometry": {
       "type": "Point",
       "coordinates":  [ -118.243368,34.059121 ]
    },
    "properties": {
    "NAME":"Central Los Angeles High School #9"
    }
  },
  {
    "type": "Feature",
    "geometry": {
       "type": "Point",
       "coordinates":  [ -73.9491583,40.7936899 ]
    },
    "properties": {
    "NAME":"Central Park East Sec School"
    }
  },
  {
    "type": "Feature",
    "geometry": {
       "type": "Point",
       "coordinates":  [ -84.3065356,33.8976951 ]
    },
    "properties": {
    "NAME":"Chamblee High School"
    }
  },
  {
    "type": "Feature",
    "geometry": {
       "type": "Point",
       "coordinates":  [ -73.8234351,40.5866656 ]
    },
    "properties": {
    "NAME":"Channel View School for Research"
    }
  },
  {
    "type": "Feature",
    "geometry": {
       "type": "Point",
       "coordinates":  [ -104.8082399,39.5405543 ]
    },
    "properties": {
    "NAME":"Chaparral High School"
    }
  },
  {
    "type": "Feature",
    "geometry": {
       "type": "Point",
       "coordinates":  [ -71.2355223,42.3865963 ]
    },
    "properties": {
    "NAME":"Chapel Hill-Chauncy Hall Sch"
    }
  },
  {
    "type": "Feature",
    "geometry": {
       "type": "Point",
       "coordinates":  [ -73.9460843,40.7739978 ]
    },
    "properties": {
    "NAME":"Chapin School"
    }
  },
  {
    "type": "Feature",
    "geometry": {
       "type": "Point",
       "coordinates":  [ -122.1677125,47.4542117 ]
    },
    "properties": {
    "NAME":"Charles a Lindbergh High Sch"
    }
  },
  {
    "type": "Feature",
    "geometry": {
       "type": "Point",
       "coordinates":  [ -82.3734121,35.6189247 ]
    },
    "properties": {
    "NAME":"Charles D Owen High School"
    }
  },
  {
    "type": "Feature",
    "geometry": {
       "type": "Point",
       "coordinates":  [ -73.889024,40.94999 ]
    },
    "properties": {
    "NAME":"Charles E Gorton High School"
    }
  },
  {
    "type": "Feature",
    "geometry": {
       "type": "Point",
       "coordinates":  [ -77.1271236,39.0542337 ]
    },
    "properties": {
    "NAME":"Charles E Smith Jewish Day Sch"
    }
  },
  {
    "type": "Feature",
    "geometry": {
       "type": "Point",
       "coordinates":  [ -76.8351126,38.9315726 ]
    },
    "properties": {
    "NAME":"Charles Herbert Flowers High School"
    }
  },
  {
    "type": "Feature",
    "geometry": {
       "type": "Point",
       "coordinates":  [ -76.6522811,42.5369191 ]
    },
    "properties": {
    "NAME":"Charles O Dickerson High Sch"
    }
  },
  {
    "type": "Feature",
    "geometry": {
       "type": "Point",
       "coordinates":  [ -80.3226757,26.0206649 ]
    },
    "properties": {
    "NAME":"Charles W Flanagan High Sch"
    }
  },
  {
    "type": "Feature",
    "geometry": {
       "type": "Point",
       "coordinates":  [ -80.103074,40.3794288 ]
    },
    "properties": {
    "NAME":"Chartiers Valley High School"
    }
  },
  {
    "type": "Feature",
    "geometry": {
       "type": "Point",
       "coordinates":  [ -79.3896572,36.8263541 ]
    },
    "properties": {
    "NAME":"Chatham Hall"
    }
  },
  {
    "type": "Feature",
    "geometry": {
       "type": "Point",
       "coordinates":  [ -74.4014468,40.7313274 ]
    },
    "properties": {
    "NAME":"Chatham High School"
    }
  },
  {
    "type": "Feature",
    "geometry": {
       "type": "Point",
       "coordinates":  [ -95.4383596,36.5411647 ]
    },
    "properties": {
    "NAME":"Chelsea High School"
    }
  },
  {
    "type": "Feature",
    "geometry": {
       "type": "Point",
       "coordinates":  [ -84.5014522,34.2349035 ]
    },
    "properties": {
    "NAME":"Cherokee High School"
    }
  },
  {
    "type": "Feature",
    "geometry": {
       "type": "Point",
       "coordinates":  [ -74.9638803,39.8764458 ]
    },
    "properties": {
    "NAME":"Cherry Hill High School East"
    }
  },
  {
    "type": "Feature",
    "geometry": {
       "type": "Point",
       "coordinates":  [ -75.0209549,39.9286154 ]
    },
    "properties": {
    "NAME":"Cherry Hill High School West"
    }
  },
  {
    "type": "Feature",
    "geometry": {
       "type": "Point",
       "coordinates":  [ -72.8973246,41.5012083 ]
    },
    "properties": {
    "NAME":"Cheshire Academy"
    }
  },
  {
    "type": "Feature",
    "geometry": {
       "type": "Point",
       "coordinates":  [ -87.6950089,41.8994747 ]
    },
    "properties": {
    "NAME":"Chicago High School for the Arts"
    }
  },
  {
    "type": "Feature",
    "geometry": {
       "type": "Point",
       "coordinates":  [ -87.6809084,41.9224288 ]
    },
    "properties": {
    "NAME":"Chicago International School"
    }
  },
  {
    "type": "Feature",
    "geometry": {
       "type": "Point",
       "coordinates":  [ -109.5816733,36.1581701 ]
    },
    "properties": {
    "NAME":"Chinle High School"
    }
  },
  {
    "type": "Feature",
    "geometry": {
       "type": "Point",
       "coordinates":  [ -95.021534,29.821133 ]
    },
    "properties": {
    "NAME":"Chinquapin School"
    }
  },
  {
    "type": "Feature",
    "geometry": {
       "type": "Point",
       "coordinates":  [ -72.8085431,41.4580185 ]
    },
    "properties": {
    "NAME":"Choate Rosemary Hall"
    }
  },
  {
    "type": "Feature",
    "geometry": {
       "type": "Point",
       "coordinates":  [ -74.164586,40.774343 ]
    },
    "properties": {
    "NAME":"Christ the King Preparatory School"
    }
  },
  {
    "type": "Feature",
    "geometry": {
       "type": "Point",
       "coordinates":  [ -121.464157,38.535509 ]
    },
    "properties": {
    "NAME":"Christian Brothers High School"
    }
  },
  {
    "type": "Feature",
    "geometry": {
       "type": "Point",
       "coordinates":  [ -87.4914478,36.8796733 ]
    },
    "properties": {
    "NAME":"Christian County High School"
    }
  },
  {
    "type": "Feature",
    "geometry": {
       "type": "Point",
       "coordinates":  [ -87.989362,42.089218 ]
    },
    "properties": {
    "NAME":"Christian Liberty Academy"
    }
  },
  {
    "type": "Feature",
    "geometry": {
       "type": "Point",
       "coordinates":  [ -73.8602433,40.8603116 ]
    },
    "properties": {
    "NAME":"Christopher Columbus High Sch"
    }
  },
  {
    "type": "Feature",
    "geometry": {
       "type": "Point",
       "coordinates":  [ -75.596151,40.03198 ]
    },
    "properties": {
    "NAME":"Church Farm School"
    }
  },
  {
    "type": "Feature",
    "geometry": {
       "type": "Point",
       "coordinates":  [ -74.210664,40.764012 ]
    },
    "properties": {
    "NAME":"Cicely Tyson Sch Perf/Fine Art"
    }
  },
  {
    "type": "Feature",
    "geometry": {
       "type": "Point",
       "coordinates":  [ -95.7795703,29.7454414 ]
    },
    "properties": {
    "NAME":"Cinco Ranch High School"
    }
  },
  {
    "type": "Feature",
    "geometry": {
       "type": "Point",
       "coordinates":  [ -78.8613021,42.9028089 ]
    },
    "properties": {
    "NAME":"City Honors High School"
    }
  },
  {
    "type": "Feature",
    "geometry": {
       "type": "Point",
       "coordinates":  [ -71.087893,42.3237052 ]
    },
    "properties": {
    "NAME":"City on a Hill Charter School"
    }
  },
  {
    "type": "Feature",
    "geometry": {
       "type": "Point",
       "coordinates":  [ -74.0060997,40.7291091 ]
    },
    "properties": {
    "NAME":"City-As-School"
    }
  },
  {
    "type": "Feature",
    "geometry": {
       "type": "Point",
       "coordinates":  [ -73.871482,40.743204 ]
    },
    "properties": {
    "NAME":"Civic Leadership Academy"
    }
  },
  {
    "type": "Feature",
    "geometry": {
       "type": "Point",
       "coordinates":  [ -117.7219428,34.1126312 ]
    },
    "properties": {
    "NAME":"Claremont High School"
    }
  },
  {
    "type": "Feature",
    "geometry": {
       "type": "Point",
       "coordinates":  [ -96.7030192,33.0586968 ]
    },
    "properties": {
    "NAME":"Clark High School"
    }
  },
  {
    "type": "Feature",
    "geometry": {
       "type": "Point",
       "coordinates":  [ -71.4203814,41.8176355 ]
    },
    "properties": {
    "NAME":"Classical High School"
    }
  },
  {
    "type": "Feature",
    "geometry": {
       "type": "Point",
       "coordinates":  [ -90.346318,38.6504792 ]
    },
    "properties": {
    "NAME":"Clayton High School"
    }
  },
  {
    "type": "Feature",
    "geometry": {
       "type": "Point",
       "coordinates":  [ -93.7713801,38.3576132 ]
    },
    "properties": {
    "NAME":"Clinton High School"
    }
  },
  {
    "type": "Feature",
    "geometry": {
       "type": "Point",
       "coordinates":  [ -107.6092091,39.5502777 ]
    },
    "properties": {
    "NAME":"COAL RIDGE HIGH SCHOOL"
    }
  },
  {
    "type": "Feature",
    "geometry": {
       "type": "Point",
       "coordinates":  [ -73.99077,40.6848686 ]
    },
    "properties": {
    "NAME":"Cobbe Hill Sch American Std"
    }
  },
  {
    "type": "Feature",
    "geometry": {
       "type": "Point",
       "coordinates":  [ -80.630486,28.3184733 ]
    },
    "properties": {
    "NAME":"Cocoa Beach Jr/Sr High School"
    }
  },
  {
    "type": "Feature",
    "geometry": {
       "type": "Point",
       "coordinates":  [ -73.2138341,44.5399122 ]
    },
    "properties": {
    "NAME":"Colchester High School"
    }
  },
  {
    "type": "Feature",
    "geometry": {
       "type": "Point",
       "coordinates":  [ -97.2315144,37.7070708 ]
    },
    "properties": {
    "NAME":"Collegiate School"
    }
  },
  {
    "type": "Feature",
    "geometry": {
       "type": "Point",
       "coordinates":  [ -73.9668174,40.790214 ]
    },
    "properties": {
    "NAME":"Columbia Grammar & Prep School"
    }
  },
  {
    "type": "Feature",
    "geometry": {
       "type": "Point",
       "coordinates":  [ -90.216113,38.446838 ]
    },
    "properties": {
    "NAME":"Columbia High School"
    }
  },
  {
    "type": "Feature",
    "geometry": {
       "type": "Point",
       "coordinates":  [ -122.6779973,45.6942099 ]
    },
    "properties": {
    "NAME":"Columbia River High School"
    }
  },
  {
    "type": "Feature",
    "geometry": {
       "type": "Point",
       "coordinates":  [ -73.956061,40.810687 ]
    },
    "properties": {
    "NAME":"Columbia Secondary School for Math Science and Engineering"
    }
  },
  {
    "type": "Feature",
    "geometry": {
       "type": "Point",
       "coordinates":  [ -92.3366548,38.901335 ]
    },
    "properties": {
    "NAME":"Columbia-Rock Bridge Sr High S"
    }
  },
  {
    "type": "Feature",
    "geometry": {
       "type": "Point",
       "coordinates":  [ -92.0328295,30.1569713 ]
    },
    "properties": {
    "NAME":"Comeaux High School"
    }
  },
  {
    "type": "Feature",
    "geometry": {
       "type": "Point",
       "coordinates":  [ -73.289047,40.8603438 ]
    },
    "properties": {
    "NAME":"Commack High School"
    }
  },
  {
    "type": "Feature",
    "geometry": {
       "type": "Point",
       "coordinates":  [ -73.9422627,40.8336419 ]
    },
    "properties": {
    "NAME":"Community Health Academy of the Heights"
    }
  },
  {
    "type": "Feature",
    "geometry": {
       "type": "Point",
       "coordinates":  [ -88.012247,41.8053082 ]
    },
    "properties": {
    "NAME":"Community Hs Dist 99 North Hs"
    }
  },
  {
    "type": "Feature",
    "geometry": {
       "type": "Point",
       "coordinates":  [ -81.7543361,26.215747 ]
    },
    "properties": {
    "NAME":"Community School of Naples"
    }
  },
  {
    "type": "Feature",
    "geometry": {
       "type": "Point",
       "coordinates":  [ -94.5259128,38.9380427 ]
    },
    "properties": {
    "NAME":"Compass School"
    }
  },
  {
    "type": "Feature",
    "geometry": {
       "type": "Point",
       "coordinates":  [ -71.3546402,42.4592867 ]
    },
    "properties": {
    "NAME":"Concord Academy"
    }
  },
  {
    "type": "Feature",
    "geometry": {
       "type": "Point",
       "coordinates":  [ -91.8481664,35.6634937 ]
    },
    "properties": {
    "NAME":"Concord High School"
    }
  },
  {
    "type": "Feature",
    "geometry": {
       "type": "Point",
       "coordinates":  [ -71.3479561,42.447623 ]
    },
    "properties": {
    "NAME":"Concord-Carlisle Regional H S"
    }
  },
  {
    "type": "Feature",
    "geometry": {
       "type": "Point",
       "coordinates":  [ -75.4541363,40.0476112 ]
    },
    "properties": {
    "NAME":"Conestoga High School"
    }
  },
  {
    "type": "Feature",
    "geometry": {
       "type": "Point",
       "coordinates":  [ -73.974268,40.598894 ]
    },
    "properties": {
    "NAME":"Coney Island Prep High School"
    }
  },
  {
    "type": "Feature",
    "geometry": {
       "type": "Point",
       "coordinates":  [ -105.317243,39.5280146 ]
    },
    "properties": {
    "NAME":"Conifer High School"
    }
  },
  {
    "type": "Feature",
    "geometry": {
       "type": "Point",
       "coordinates":  [ -71.9406389,42.9098023 ]
    },
    "properties": {
    "NAME":"Contoocook Valley Regional H S"
    }
  },
  {
    "type": "Feature",
    "geometry": {
       "type": "Point",
       "coordinates":  [ -73.9575996,40.7846595 ]
    },
    "properties": {
    "NAME":"Convent of the Sacred Heart"
    }
  },
  {
    "type": "Feature",
    "geometry": {
       "type": "Point",
       "coordinates":  [ -122.433828,37.794442 ]
    },
    "properties": {
    "NAME":"Convent of the Sacred Heart Hs"
    }
  },
  {
    "type": "Feature",
    "geometry": {
       "type": "Point",
       "coordinates":  [ -80.263209,25.7337719 ]
    },
    "properties": {
    "NAME":"Coral Gables Sr High School"
    }
  },
  {
    "type": "Feature",
    "geometry": {
       "type": "Point",
       "coordinates":  [ -80.2948232,26.2634764 ]
    },
    "properties": {
    "NAME":"Coral Glades High School"
    }
  },
  {
    "type": "Feature",
    "geometry": {
       "type": "Point",
       "coordinates":  [ -80.3562884,25.630142 ]
    },
    "properties": {
    "NAME":"Coral Reef Senior High School"
    }
  },
  {
    "type": "Feature",
    "geometry": {
       "type": "Point",
       "coordinates":  [ -80.5374463,24.9939635 ]
    },
    "properties": {
    "NAME":"Coral Shores High School"
    }
  },
  {
    "type": "Feature",
    "geometry": {
       "type": "Point",
       "coordinates":  [ -80.1630276,40.5082496 ]
    },
    "properties": {
    "NAME":"Cornell High School"
    }
  },
  {
    "type": "Feature",
    "geometry": {
       "type": "Point",
       "coordinates":  [ -104.8578665,38.8736725 ]
    },
    "properties": {
    "NAME":"Coronado High School"
    }
  },
  {
    "type": "Feature",
    "geometry": {
       "type": "Point",
       "coordinates":  [ -77.7008509,37.4073977 ]
    },
    "properties": {
    "NAME":"Cosby High School"
    }
  },
  {
    "type": "Feature",
    "geometry": {
       "type": "Point",
       "coordinates":  [ -75.3454491,40.0136949 ]
    },
    "properties": {
    "NAME":"Country Day Sch Sacred Heart"
    }
  },
  {
    "type": "Feature",
    "geometry": {
       "type": "Point",
       "coordinates":  [ -71.5908141,41.6848155 ]
    },
    "properties": {
    "NAME":"Coventry High School"
    }
  },
  {
    "type": "Feature",
    "geometry": {
       "type": "Point",
       "coordinates":  [ -80.7285445,35.3952718 ]
    },
    "properties": {
    "NAME":"Cox Mill High School"
    }
  },
  {
    "type": "Feature",
    "geometry": {
       "type": "Point",
       "coordinates":  [ -87.6832298,41.8769747 ]
    },
    "properties": {
    "NAME":"Crane Tech Prep Common School"
    }
  },
  {
    "type": "Feature",
    "geometry": {
       "type": "Point",
       "coordinates":  [ -118.3291159,34.0093555 ]
    },
    "properties": {
    "NAME":"Crenshaw Arts and Technical Charter High School"
    }
  },
  {
    "type": "Feature",
    "geometry": {
       "type": "Point",
       "coordinates":  [ -118.3290889,33.9969616 ]
    },
    "properties": {
    "NAME":"Crenshaw High School"
    }
  },
  {
    "type": "Feature",
    "geometry": {
       "type": "Point",
       "coordinates":  [ -95.3089062,29.6636303 ]
    },
    "properties": {
    "NAME":"Cristo Rey Jesuit College Preparatory School Of Houston"
    }
  },
  {
    "type": "Feature",
    "geometry": {
       "type": "Point",
       "coordinates":  [ -93.2711091,44.9492686 ]
    },
    "properties": {
    "NAME":"Cristo Rey Jesuit High School"
    }
  },
  {
    "type": "Feature",
    "geometry": {
       "type": "Point",
       "coordinates":  [ -73.947345,40.792451 ]
    },
    "properties": {
    "NAME":"Cristo Rey New York High School"
    }
  },
  {
    "type": "Feature",
    "geometry": {
       "type": "Point",
       "coordinates":  [ -87.878641,42.3506624 ]
    },
    "properties": {
    "NAME":"Cristo Rey St. Martin College Prep"
    }
  },
  {
    "type": "Feature",
    "geometry": {
       "type": "Point",
       "coordinates":  [ -94.5866467,39.101727 ]
    },
    "properties": {
    "NAME":"Crossroads School"
    }
  },
  {
    "type": "Feature",
    "geometry": {
       "type": "Point",
       "coordinates":  [ -73.8820616,41.2068455 ]
    },
    "properties": {
    "NAME":"Croton-Harmon High School"
    }
  },
  {
    "type": "Feature",
    "geometry": {
       "type": "Point",
       "coordinates":  [ -86.4047044,41.2250559 ]
    },
    "properties": {
    "NAME":"Culver Academies"
    }
  },
  {
    "type": "Feature",
    "geometry": {
       "type": "Point",
       "coordinates":  [ -118.4013141,34.0068446 ]
    },
    "properties": {
    "NAME":"Culver City High School"
    }
  },
  {
    "type": "Feature",
    "geometry": {
       "type": "Point",
       "coordinates":  [ -87.72167,41.8022427 ]
    },
    "properties": {
    "NAME":"Curie Metro High School"
    }
  },
  {
    "type": "Feature",
    "geometry": {
       "type": "Point",
       "coordinates":  [ -87.72167,41.8022427 ]
    },
    "properties": {
    "NAME":"Curie Metropolitan High Sch"
    }
  },
  {
    "type": "Feature",
    "geometry": {
       "type": "Point",
       "coordinates":  [ -122.5488125,47.2211621 ]
    },
    "properties": {
    "NAME":"Curtis High School"
    }
  },
  {
    "type": "Feature",
    "geometry": {
       "type": "Point",
       "coordinates":  [ -80.3305141,25.5711691 ]
    },
    "properties": {
    "NAME":"Cutler Bay Senior High School"
    }
  },
  {
    "type": "Feature",
    "geometry": {
       "type": "Point",
       "coordinates":  [ -81.3798095,28.3811292 ]
    },
    "properties": {
    "NAME":"Cypress Creek High School"
    }
  },
  {
    "type": "Feature",
    "geometry": {
       "type": "Point",
       "coordinates":  [ -105.1494696,39.6043048 ]
    },
    "properties": {
    "NAME":"Dakota Ridge High School"
    }
  },
  {
    "type": "Feature",
    "geometry": {
       "type": "Point",
       "coordinates":  [ -73.955087,40.781585 ]
    },
    "properties": {
    "NAME":"Dalton School"
    }
  },
  {
    "type": "Feature",
    "geometry": {
       "type": "Point",
       "coordinates":  [ -72.6193037,41.2928204 ]
    },
    "properties": {
    "NAME":"Daniel Hand High School"
    }
  },
  {
    "type": "Feature",
    "geometry": {
       "type": "Point",
       "coordinates":  [ -73.4911221,41.0856753 ]
    },
    "properties": {
    "NAME":"Darien High School"
    }
  },
  {
    "type": "Feature",
    "geometry": {
       "type": "Point",
       "coordinates":  [ -73.3812046,42.4525155 ]
    },
    "properties": {
    "NAME":"Darrow School"
    }
  },
  {
    "type": "Feature",
    "geometry": {
       "type": "Point",
       "coordinates":  [ -122.5264099,45.5156974 ]
    },
    "properties": {
    "NAME":"David Douglas High School"
    }
  },
  {
    "type": "Feature",
    "geometry": {
       "type": "Point",
       "coordinates":  [ -118.2310693,33.9433057 ]
    },
    "properties": {
    "NAME":"David Starr Jordan High School"
    }
  },
  {
    "type": "Feature",
    "geometry": {
       "type": "Point",
       "coordinates":  [ -87.0847452,37.7298673 ]
    },
    "properties": {
    "NAME":"Daviess County High School"
    }
  },
  {
    "type": "Feature",
    "geometry": {
       "type": "Point",
       "coordinates":  [ -97.1151097,34.4986801 ]
    },
    "properties": {
    "NAME":"Davis High School"
    }
  },
  {
    "type": "Feature",
    "geometry": {
       "type": "Point",
       "coordinates":  [ -121.7505312,38.5564132 ]
    },
    "properties": {
    "NAME":"Davis Senior High School"
    }
  },
  {
    "type": "Feature",
    "geometry": {
       "type": "Point",
       "coordinates":  [ -95.352628,29.573768 ]
    },
    "properties": {
    "NAME":"Dawson High School"
    }
  },
  {
    "type": "Feature",
    "geometry": {
       "type": "Point",
       "coordinates":  [ -76.9462536,38.8870831 ]
    },
    "properties": {
    "NAME":"DC SEED Public Charter School"
    }
  },
  {
    "type": "Feature",
    "geometry": {
       "type": "Point",
       "coordinates":  [ -87.6237767,41.8313343 ]
    },
    "properties": {
    "NAME":"De la Salle Institute"
    }
  },
  {
    "type": "Feature",
    "geometry": {
       "type": "Point",
       "coordinates":  [ -112.1696443,33.6529974 ]
    },
    "properties": {
    "NAME":"Deer Valley High School"
    }
  },
  {
    "type": "Feature",
    "geometry": {
       "type": "Point",
       "coordinates":  [ -72.6076286,42.546129 ]
    },
    "properties": {
    "NAME":"Deerfield Academy"
    }
  },
  {
    "type": "Feature",
    "geometry": {
       "type": "Point",
       "coordinates":  [ -70.2964921,43.6714847 ]
    },
    "properties": {
    "NAME":"Deering High School"
    }
  },
  {
    "type": "Feature",
    "geometry": {
       "type": "Point",
       "coordinates":  [ -74.5312312,40.7882833 ]
    },
    "properties": {
    "NAME":"Delbarton School"
    }
  },
  {
    "type": "Feature",
    "geometry": {
       "type": "Point",
       "coordinates":  [ -73.9518461,40.8059763 ]
    },
    "properties": {
    "NAME":"Democracy Prep Harlem High School"
    }
  },
  {
    "type": "Feature",
    "geometry": {
       "type": "Point",
       "coordinates":  [ -73.9490765,40.8107449 ]
    },
    "properties": {
    "NAME":"Democracy Preparatory Charter School"
    }
  },
  {
    "type": "Feature",
    "geometry": {
       "type": "Point",
       "coordinates":  [ -79.3131726,40.3401332 ]
    },
    "properties": {
    "NAME":"Derry Area Senior High School"
    }
  },
  {
    "type": "Feature",
    "geometry": {
       "type": "Point",
       "coordinates":  [ -105.918814,35.6274124 ]
    },
    "properties": {
    "NAME":"Desert Academy At Santa Fe"
    }
  },
  {
    "type": "Feature",
    "geometry": {
       "type": "Point",
       "coordinates":  [ -80.1907166,25.8140153 ]
    },
    "properties": {
    "NAME":"Design & Architecture Sr High"
    }
  },
  {
    "type": "Feature",
    "geometry": {
       "type": "Point",
       "coordinates":  [ -83.2830751,42.3186735 ]
    },
    "properties": {
    "NAME":"Divine Child High School"
    }
  },
  {
    "type": "Feature",
    "geometry": {
       "type": "Point",
       "coordinates":  [ -118.3463426,34.0228182 ]
    },
    "properties": {
    "NAME":"Dorsey Senior High School"
    }
  },
  {
    "type": "Feature",
    "geometry": {
       "type": "Point",
       "coordinates":  [ -97.0049916,37.5205374 ]
    },
    "properties": {
    "NAME":"Douglas High School"
    }
  },
  {
    "type": "Feature",
    "geometry": {
       "type": "Point",
       "coordinates":  [ -77.5585207,37.6016154 ]
    },
    "properties": {
    "NAME":"Douglas S Freeman High School"
    }
  },
  {
    "type": "Feature",
    "geometry": {
       "type": "Point",
       "coordinates":  [ -71.3248669,42.218241 ]
    },
    "properties": {
    "NAME":"Dover-Sherborn Regl High Sch"
    }
  },
  {
    "type": "Feature",
    "geometry": {
       "type": "Point",
       "coordinates":  [ -122.4423446,37.7876396 ]
    },
    "properties": {
    "NAME":"Drew College Preparatory Sch"
    }
  },
  {
    "type": "Feature",
    "geometry": {
       "type": "Point",
       "coordinates":  [ -80.0616264,26.7088319 ]
    },
    "properties": {
    "NAME":"Dreyfoos School of the Arts"
    }
  },
  {
    "type": "Feature",
    "geometry": {
       "type": "Point",
       "coordinates":  [ -77.0703829,38.9134493 ]
    },
    "properties": {
    "NAME":"Duke Ellington Schl for Arts"
    }
  },
  {
    "type": "Feature",
    "geometry": {
       "type": "Point",
       "coordinates":  [ -85.7582583,38.2223769 ]
    },
    "properties": {
    "NAME":"Dupont Manual Magnet High Sch"
    }
  },
  {
    "type": "Feature",
    "geometry": {
       "type": "Point",
       "coordinates":  [ -78.9689044,35.9773073 ]
    },
    "properties": {
    "NAME":"Durham Academy Upper School"
    }
  },
  {
    "type": "Feature",
    "geometry": {
       "type": "Point",
       "coordinates":  [ -78.9067718,36.0027822 ]
    },
    "properties": {
    "NAME":"Durham School of the Arts"
    }
  },
  {
    "type": "Feature",
    "geometry": {
       "type": "Point",
       "coordinates":  [ -73.9617283,40.8881541 ]
    },
    "properties": {
    "NAME":"Dwight Englewood School"
    }
  },
  {
    "type": "Feature",
    "geometry": {
       "type": "Point",
       "coordinates":  [ -73.968128,40.787495 ]
    },
    "properties": {
    "NAME":"Dwight School the"
    }
  },
  {
    "type": "Feature",
    "geometry": {
       "type": "Point",
       "coordinates":  [ -118.2692919,33.9576908 ]
    },
    "properties": {
    "NAME":"Dymally Senior High School"
    }
  },
  {
    "type": "Feature",
    "geometry": {
       "type": "Point",
       "coordinates":  [ -77.0243669,38.9343788 ]
    },
    "properties": {
    "NAME":"E.L. Haynes Public Charter School"
    }
  },
  {
    "type": "Feature",
    "geometry": {
       "type": "Point",
       "coordinates":  [ -93.1344321,44.8073264 ]
    },
    "properties": {
    "NAME":"Eagan High School"
    }
  },
  {
    "type": "Feature",
    "geometry": {
       "type": "Point",
       "coordinates":  [ -73.897176,40.845264 ]
    },
    "properties": {
    "NAME":"Eagle Academy for Young Men"
    }
  },
  {
    "type": "Feature",
    "geometry": {
       "type": "Point",
       "coordinates":  [ -79.0292227,35.9607647 ]
    },
    "properties": {
    "NAME":"East Chapel Hill High School"
    }
  },
  {
    "type": "Feature",
    "geometry": {
       "type": "Point",
       "coordinates":  [ -71.4833975,41.6387351 ]
    },
    "properties": {
    "NAME":"East Greenwich High School"
    }
  },
  {
    "type": "Feature",
    "geometry": {
       "type": "Point",
       "coordinates":  [ -97.3090028,37.6845131 ]
    },
    "properties": {
    "NAME":"East High School"
    }
  },
  {
    "type": "Feature",
    "geometry": {
       "type": "Point",
       "coordinates":  [ -82.7014107,28.1268511 ]
    },
    "properties": {
    "NAME":"East Lake High School"
    }
  },
  {
    "type": "Feature",
    "geometry": {
       "type": "Point",
       "coordinates":  [ -73.8752132,40.678748 ]
    },
    "properties": {
    "NAME":"East New York H S Transit Tech"
    }
  },
  {
    "type": "Feature",
    "geometry": {
       "type": "Point",
       "coordinates":  [ -74.2074603,40.776098 ]
    },
    "properties": {
    "NAME":"East Orange High School"
    }
  },
  {
    "type": "Feature",
    "geometry": {
       "type": "Point",
       "coordinates":  [ -73.982502,40.7293824 ]
    },
    "properties": {
    "NAME":"East Side Community High Sch"
    }
  },
  {
    "type": "Feature",
    "geometry": {
       "type": "Point",
       "coordinates":  [ -75.1850019,41.0053971 ]
    },
    "properties": {
    "NAME":"East Stroudsburg Area High Sch"
    }
  },
  {
    "type": "Feature",
    "geometry": {
       "type": "Point",
       "coordinates":  [ -116.9675992,32.6402859 ]
    },
    "properties": {
    "NAME":"Eastlake High School"
    }
  },
  {
    "type": "Feature",
    "geometry": {
       "type": "Point",
       "coordinates":  [ -122.1321567,37.4635839 ]
    },
    "properties": {
    "NAME":"Eastside College Prep School"
    }
  },
  {
    "type": "Feature",
    "geometry": {
       "type": "Point",
       "coordinates":  [ -82.3005219,34.8938078 ]
    },
    "properties": {
    "NAME":"Eastside High School"
    }
  },
  {
    "type": "Feature",
    "geometry": {
       "type": "Point",
       "coordinates":  [ -122.1989982,47.6436107 ]
    },
    "properties": {
    "NAME":"Eastside Prep School"
    }
  },
  {
    "type": "Feature",
    "geometry": {
       "type": "Point",
       "coordinates":  [ -95.3284688,29.7355709 ]
    },
    "properties": {
    "NAME":"Eastwood Academy"
    }
  },
  {
    "type": "Feature",
    "geometry": {
       "type": "Point",
       "coordinates":  [ -97.9777855,26.2981657 ]
    },
    "properties": {
    "NAME":"Edcouch Elsa High School"
    }
  },
  {
    "type": "Feature",
    "geometry": {
       "type": "Point",
       "coordinates":  [ -73.8080581,41.0010238 ]
    },
    "properties": {
    "NAME":"Edgemont High School"
    }
  },
  {
    "type": "Feature",
    "geometry": {
       "type": "Point",
       "coordinates":  [ -93.3768045,44.8825618 ]
    },
    "properties": {
    "NAME":"Edina High School"
    }
  },
  {
    "type": "Feature",
    "geometry": {
       "type": "Point",
       "coordinates":  [ -74.3872928,40.5146801 ]
    },
    "properties": {
    "NAME":"Edison Township High School"
    }
  },
  {
    "type": "Feature",
    "geometry": {
       "type": "Point",
       "coordinates":  [ -77.062032,38.94238 ]
    },
    "properties": {
    "NAME":"Edmund Burke School"
    }
  },
  {
    "type": "Feature",
    "geometry": {
       "type": "Point",
       "coordinates":  [ -73.9591139,40.6197592 ]
    },
    "properties": {
    "NAME":"Edward R Murrow High School"
    }
  },
  {
    "type": "Feature",
    "geometry": {
       "type": "Point",
       "coordinates":  [ -97.0629108,33.0635617 ]
    },
    "properties": {
    "NAME":"Edward S Marcus High School"
    }
  },
  {
    "type": "Feature",
    "geometry": {
       "type": "Point",
       "coordinates":  [ -75.1339919,39.9849571 ]
    },
    "properties": {
    "NAME":"El Centro de Estudiantes"
    }
  },
  {
    "type": "Feature",
    "geometry": {
       "type": "Point",
       "coordinates":  [ -117.6874827,33.6373015 ]
    },
    "properties": {
    "NAME":"El Toro High School"
    }
  },
  {
    "type": "Feature",
    "geometry": {
       "type": "Point",
       "coordinates":  [ -96.8451716,37.8449565 ]
    },
    "properties": {
    "NAME":"Eldorado High School"
    }
  },
  {
    "type": "Feature",
    "geometry": {
       "type": "Point",
       "coordinates":  [ -76.8694496,38.994039 ]
    },
    "properties": {
    "NAME":"Eleanor Roosevelt High School"
    }
  },
  {
    "type": "Feature",
    "geometry": {
       "type": "Point",
       "coordinates":  [ -88.2447493,42.026919 ]
    },
    "properties": {
    "NAME":"Elgin High School"
    }
  },
  {
    "type": "Feature",
    "geometry": {
       "type": "Point",
       "coordinates":  [ -74.0046927,40.7269048 ]
    },
    "properties": {
    "NAME":"Elisabeth Irwin High School"
    }
  },
  {
    "type": "Feature",
    "geometry": {
       "type": "Point",
       "coordinates":  [ -95.558406,29.5456375 ]
    },
    "properties": {
    "NAME":"Elkins High School"
    }
  },
  {
    "type": "Feature",
    "geometry": {
       "type": "Point",
       "coordinates":  [ -82.661026,46.376033 ]
    },
    "properties": {
    "NAME":"Elliot Lake Secondary School"
    }
  },
  {
    "type": "Feature",
    "geometry": {
       "type": "Point",
       "coordinates":  [ -95.6356794,37.0376275 ]
    },
    "properties": {
    "NAME":"Ellis School"
    }
  },
  {
    "type": "Feature",
    "geometry": {
       "type": "Point",
       "coordinates":  [ -73.7182979,40.6968991 ]
    },
    "properties": {
    "NAME":"Elmont Memorial Jr-Sr High Sch"
    }
  },
  {
    "type": "Feature",
    "geometry": {
       "type": "Point",
       "coordinates":  [ -80.1333463,26.2421138 ]
    },
    "properties": {
    "NAME":"Ely High School"
    }
  },
  {
    "type": "Feature",
    "geometry": {
       "type": "Point",
       "coordinates":  [ -79.0784846,35.9867531 ]
    },
    "properties": {
    "NAME":"Emerson Waldorf School"
    }
  },
  {
    "type": "Feature",
    "geometry": {
       "type": "Point",
       "coordinates":  [ -73.664347,42.7124471 ]
    },
    "properties": {
    "NAME":"Emma Willard School"
    }
  },
  {
    "type": "Feature",
    "geometry": {
       "type": "Point",
       "coordinates":  [ -73.8290101,40.6926827 ]
    },
    "properties": {
    "NAME":"EPIC High School North"
    }
  },
  {
    "type": "Feature",
    "geometry": {
       "type": "Point",
       "coordinates":  [ -75.4250952,40.0063008 ]
    },
    "properties": {
    "NAME":"Episcopal Academy"
    }
  },
  {
    "type": "Feature",
    "geometry": {
       "type": "Point",
       "coordinates":  [ -77.0939697,38.8244216 ]
    },
    "properties": {
    "NAME":"Episcopal High School"
    }
  },
  {
    "type": "Feature",
    "geometry": {
       "type": "Point",
       "coordinates":  [ -118.3276369,34.0910272 ]
    },
    "properties": {
    "NAME":"Episcopal School of Los Angeles"
    }
  },
  {
    "type": "Feature",
    "geometry": {
       "type": "Point",
       "coordinates":  [ -123.1249865,49.2398336 ]
    },
    "properties": {
    "NAME":"Eric Hamber Secondary School"
    }
  },
  {
    "type": "Feature",
    "geometry": {
       "type": "Point",
       "coordinates":  [ -66.5884348,18.2189685 ]
    },
    "properties": {
    "NAME":"Escuela Sup Josefina Leon Zaya"
    }
  },
  {
    "type": "Feature",
    "geometry": {
       "type": "Point",
       "coordinates":  [ -73.9421359,40.792727 ]
    },
    "properties": {
    "NAME":"Esperanza Preparatory Academy"
    }
  },
  {
    "type": "Feature",
    "geometry": {
       "type": "Point",
       "coordinates":  [ -81.7985223,26.4221004 ]
    },
    "properties": {
    "NAME":"Estero High School"
    }
  },
  {
    "type": "Feature",
    "geometry": {
       "type": "Point",
       "coordinates":  [ -72.8339623,41.8494492 ]
    },
    "properties": {
    "NAME":"Ethel Walker School"
    }
  },
  {
    "type": "Feature",
    "geometry": {
       "type": "Point",
       "coordinates":  [ -73.8616096,40.8751619 ]
    },
    "properties": {
    "NAME":"Evander Childs High School"
    }
  },
  {
    "type": "Feature",
    "geometry": {
       "type": "Point",
       "coordinates":  [ -87.7007442,42.0463103 ]
    },
    "properties": {
    "NAME":"Evanston Township High School"
    }
  },
  {
    "type": "Feature",
    "geometry": {
       "type": "Point",
       "coordinates":  [ -121.616388,36.7132728 ]
    },
    "properties": {
    "NAME":"Everett Alvarez High School"
    }
  },
  {
    "type": "Feature",
    "geometry": {
       "type": "Point",
       "coordinates":  [ -105.3314098,39.6217214 ]
    },
    "properties": {
    "NAME":"Evergreen High School"
    }
  },
  {
    "type": "Feature",
    "geometry": {
       "type": "Point",
       "coordinates":  [ -87.7024817,41.7228282 ]
    },
    "properties": {
    "NAME":"Evergreen Park Cmty High Sch"
    }
  },
  {
    "type": "Feature",
    "geometry": {
       "type": "Point",
       "coordinates":  [ -94.5671635,39.0116792 ]
    },
    "properties": {
    "NAME":"Ewing Marion Kauffman School"
    }
  },
  {
    "type": "Feature",
    "geometry": {
       "type": "Point",
       "coordinates":  [ -73.7579342,40.6680413 ]
    },
    "properties": {
    "NAME":"Excelsior Preparatory High School"
    }
  },
  {
    "type": "Feature",
    "geometry": {
       "type": "Point",
       "coordinates":  [ -93.9379802,36.674512 ]
    },
    "properties": {
    "NAME":"Exeter High School"
    }
  },
  {
    "type": "Feature",
    "geometry": {
       "type": "Point",
       "coordinates":  [ -119.1357709,36.2983476 ]
    },
    "properties": {
    "NAME":"Exeter Union High School"
    }
  },
  {
    "type": "Feature",
    "geometry": {
       "type": "Point",
       "coordinates":  [ -73.234124,41.186856 ]
    },
    "properties": {
    "NAME":"Fairfield Warde High School"
    }
  },
  {
    "type": "Feature",
    "geometry": {
       "type": "Point",
       "coordinates":  [ -94.5581811,39.1586553 ]
    },
    "properties": {
    "NAME":"Faith Christian Academy"
    }
  },
  {
    "type": "Feature",
    "geometry": {
       "type": "Point",
       "coordinates":  [ -70.607564,41.590069 ]
    },
    "properties": {
    "NAME":"Falmouth High School"
    }
  },
  {
    "type": "Feature",
    "geometry": {
       "type": "Point",
       "coordinates":  [ -73.8856007,40.8310801 ]
    },
    "properties": {
    "NAME":"Fannie Lou Hamer Freedom Hs"
    }
  },
  {
    "type": "Feature",
    "geometry": {
       "type": "Point",
       "coordinates":  [ -118.2270253,34.0484892 ]
    },
    "properties": {
    "NAME":"Felicitas and Gonzalo Mendez High School"
    }
  },
  {
    "type": "Feature",
    "geometry": {
       "type": "Point",
       "coordinates":  [ -85.5927446,38.156145 ]
    },
    "properties": {
    "NAME":"Fern Creek High School"
    }
  },
  {
    "type": "Feature",
    "geometry": {
       "type": "Point",
       "coordinates":  [ -77.0884406,38.9211717 ]
    },
    "properties": {
    "NAME":"Field School the"
    }
  },
  {
    "type": "Feature",
    "geometry": {
       "type": "Point",
       "coordinates":  [ -73.9062511,40.8892108 ]
    },
    "properties": {
    "NAME":"Fieldston School"
    }
  },
  {
    "type": "Feature",
    "geometry": {
       "type": "Point",
       "coordinates":  [ -71.8077778,42.6214034 ]
    },
    "properties": {
    "NAME":"Fitchburg High School"
    }
  },
  {
    "type": "Feature",
    "geometry": {
       "type": "Point",
       "coordinates":  [ -77.31976,38.870373 ]
    },
    "properties": {
    "NAME":"Flint Hill School"
    }
  },
  {
    "type": "Feature",
    "geometry": {
       "type": "Point",
       "coordinates":  [ -73.8263758,40.7647694 ]
    },
    "properties": {
    "NAME":"Flushing High School"
    }
  },
  {
    "type": "Feature",
    "geometry": {
       "type": "Point",
       "coordinates":  [ -71.0594803,42.2595406 ]
    },
    "properties": {
    "NAME":"Fontbonne Academy"
    }
  },
  {
    "type": "Feature",
    "geometry": {
       "type": "Point",
       "coordinates":  [ -73.8449259,40.7297115 ]
    },
    "properties": {
    "NAME":"Forest Hills High School"
    }
  },
  {
    "type": "Feature",
    "geometry": {
       "type": "Point",
       "coordinates":  [ -85.5756242,42.9861831 ]
    },
    "properties": {
    "NAME":"Forest Hills Northern High Sch"
    }
  },
  {
    "type": "Feature",
    "geometry": {
       "type": "Point",
       "coordinates":  [ -80.389294,36.102313 ]
    },
    "properties": {
    "NAME":"Forsyth Country Day School"
    }
  },
  {
    "type": "Feature",
    "geometry": {
       "type": "Point",
       "coordinates":  [ -80.2800421,40.3460526 ]
    },
    "properties": {
    "NAME":"Fort Cherry High School"
    }
  },
  {
    "type": "Feature",
    "geometry": {
       "type": "Point",
       "coordinates":  [ -80.139282,26.1486483 ]
    },
    "properties": {
    "NAME":"Fort Lauderdale High School"
    }
  },
  {
    "type": "Feature",
    "geometry": {
       "type": "Point",
       "coordinates":  [ -104.7103127,38.7435533 ]
    },
    "properties": {
    "NAME":"Fountain Valley School"
    }
  },
  {
    "type": "Feature",
    "geometry": {
       "type": "Point",
       "coordinates":  [ -79.868921,40.517885 ]
    },
    "properties": {
    "NAME":"Fox Chapel Area High School"
    }
  },
  {
    "type": "Feature",
    "geometry": {
       "type": "Point",
       "coordinates":  [ -73.6781998,41.1916105 ]
    },
    "properties": {
    "NAME":"Fox Ln High School"
    }
  },
  {
    "type": "Feature",
    "geometry": {
       "type": "Point",
       "coordinates":  [ -71.403192,42.318635 ]
    },
    "properties": {
    "NAME":"Framingham High School"
    }
  },
  {
    "type": "Feature",
    "geometry": {
       "type": "Point",
       "coordinates":  [ -73.7939348,40.7407391 ]
    },
    "properties": {
    "NAME":"Francis Lewis High School"
    }
  },
  {
    "type": "Feature",
    "geometry": {
       "type": "Point",
       "coordinates":  [ -73.9251655,40.7560972 ]
    },
    "properties": {
    "NAME":"Frank Sinatra School of the Arts"
    }
  },
  {
    "type": "Feature",
    "geometry": {
       "type": "Point",
       "coordinates":  [ -95.4454979,38.6087986 ]
    },
    "properties": {
    "NAME":"Franklin High School"
    }
  },
  {
    "type": "Feature",
    "geometry": {
       "type": "Point",
       "coordinates":  [ -75.1627975,39.9650593 ]
    },
    "properties": {
    "NAME":"Franklin Learning Center"
    }
  },
  {
    "type": "Feature",
    "geometry": {
       "type": "Point",
       "coordinates":  [ -73.9365449,40.8243982 ]
    },
    "properties": {
    "NAME":"Frederick Douglass Academy"
    }
  },
  {
    "type": "Feature",
    "geometry": {
       "type": "Point",
       "coordinates":  [ -118.2933175,33.9679765 ]
    },
    "properties": {
    "NAME":"Frederick K C Price III School"
    }
  },
  {
    "type": "Feature",
    "geometry": {
       "type": "Point",
       "coordinates":  [ -89.6289099,42.2880539 ]
    },
    "properties": {
    "NAME":"Freeport High School"
    }
  },
  {
    "type": "Feature",
    "geometry": {
       "type": "Point",
       "coordinates":  [ -122.4217506,37.7753407 ]
    },
    "properties": {
    "NAME":"French American Internatnl Sch"
    }
  },
  {
    "type": "Feature",
    "geometry": {
       "type": "Point",
       "coordinates":  [ -73.750593,40.927018 ]
    },
    "properties": {
    "NAME":"French American Sch of Ny"
    }
  },
  {
    "type": "Feature",
    "geometry": {
       "type": "Point",
       "coordinates":  [ -73.5950219,40.8652215 ]
    },
    "properties": {
    "NAME":"Friends Academy"
    }
  },
  {
    "type": "Feature",
    "geometry": {
       "type": "Point",
       "coordinates":  [ -75.261518,39.98391 ]
    },
    "properties": {
    "NAME":"Friends Central School"
    }
  },
  {
    "type": "Feature",
    "geometry": {
       "type": "Point",
       "coordinates":  [ -75.1671241,39.9564044 ]
    },
    "properties": {
    "NAME":"Friends Select School"
    }
  },
  {
    "type": "Feature",
    "geometry": {
       "type": "Point",
       "coordinates":  [ -73.9850692,40.7340188 ]
    },
    "properties": {
    "NAME":"Friends Seminary"
    }
  },
  {
    "type": "Feature",
    "geometry": {
       "type": "Point",
       "coordinates":  [ -70.975353,44.0198928 ]
    },
    "properties": {
    "NAME":"Fryeburg Academy"
    }
  },
  {
    "type": "Feature",
    "geometry": {
       "type": "Point",
       "coordinates":  [ -80.4305863,25.7334644 ]
    },
    "properties": {
    "NAME":"G Holmes Braddock High School"
    }
  },
  {
    "type": "Feature",
    "geometry": {
       "type": "Point",
       "coordinates":  [ -118.0942995,33.8735578 ]
    },
    "properties": {
    "NAME":"Gahr High School"
    }
  },
  {
    "type": "Feature",
    "geometry": {
       "type": "Point",
       "coordinates":  [ -122.4240285,37.8034625 ]
    },
    "properties": {
    "NAME":"Galileo Acad of Science & Tech"
    }
  },
  {
    "type": "Feature",
    "geometry": {
       "type": "Point",
       "coordinates":  [ -86.4609476,36.3786139 ]
    },
    "properties": {
    "NAME":"Gallatin High School"
    }
  },
  {
    "type": "Feature",
    "geometry": {
       "type": "Point",
       "coordinates":  [ -84.3937085,33.8757051 ]
    },
    "properties": {
    "NAME":"Galloway School"
    }
  },
  {
    "type": "Feature",
    "geometry": {
       "type": "Point",
       "coordinates":  [ -86.261853,39.822789 ]
    },
    "properties": {
    "NAME":"Gambold Preparatory Magnet High School"
    }
  },
  {
    "type": "Feature",
    "geometry": {
       "type": "Point",
       "coordinates":  [ -80.7819896,35.2409912 ]
    },
    "properties": {
    "NAME":"Garinger High School"
    }
  },
  {
    "type": "Feature",
    "geometry": {
       "type": "Point",
       "coordinates":  [ -97.3325589,37.6958086 ]
    },
    "properties": {
    "NAME":"Gateway High School"
    }
  },
  {
    "type": "Feature",
    "geometry": {
       "type": "Point",
       "coordinates":  [ -94.5349274,37.0699685 ]
    },
    "properties": {
    "NAME":"Gateway School"
    }
  },
  {
    "type": "Feature",
    "geometry": {
       "type": "Point",
       "coordinates":  [ -87.6491189,41.9093361 ]
    },
    "properties": {
    "NAME":"GCE Lab School"
    }
  },
  {
    "type": "Feature",
    "geometry": {
       "type": "Point",
       "coordinates":  [ -77.2123123,38.905904 ]
    },
    "properties": {
    "NAME":"George C Marshall High School"
    }
  },
  {
    "type": "Feature",
    "geometry": {
       "type": "Point",
       "coordinates":  [ -74.9352384,40.2122551 ]
    },
    "properties": {
    "NAME":"George School"
    }
  },
  {
    "type": "Feature",
    "geometry": {
       "type": "Point",
       "coordinates":  [ -104.9142354,39.7054946 ]
    },
    "properties": {
    "NAME":"George Washington High School"
    }
  },
  {
    "type": "Feature",
    "geometry": {
       "type": "Point",
       "coordinates":  [ -73.943838,40.658665 ]
    },
    "properties": {
    "NAME":"George Wood Wingate High Sch"
    }
  },
  {
    "type": "Feature",
    "geometry": {
       "type": "Point",
       "coordinates":  [ -77.086215,38.90766 ]
    },
    "properties": {
    "NAME":"Georgetown Day School"
    }
  },
  {
    "type": "Feature",
    "geometry": {
       "type": "Point",
       "coordinates":  [ -77.0693278,38.9094271 ]
    },
    "properties": {
    "NAME":"Georgetown Visitation Prep Sch"
    }
  },
  {
    "type": "Feature",
    "geometry": {
       "type": "Point",
       "coordinates":  [ -110.2692335,47.6031837 ]
    },
    "properties": {
    "NAME":"Geraldine School"
    }
  },
  {
    "type": "Feature",
    "geometry": {
       "type": "Point",
       "coordinates":  [ -75.2152877,40.1372446 ]
    },
    "properties": {
    "NAME":"Germantown Academy"
    }
  },
  {
    "type": "Feature",
    "geometry": {
       "type": "Point",
       "coordinates":  [ -75.1711957,40.0328163 ]
    },
    "properties": {
    "NAME":"Germantown Friends School"
    }
  },
  {
    "type": "Feature",
    "geometry": {
       "type": "Point",
       "coordinates":  [ -74.670013,40.733496 ]
    },
    "properties": {
    "NAME":"Gill Saint Bernard's School"
    }
  },
  {
    "type": "Feature",
    "geometry": {
       "type": "Point",
       "coordinates":  [ -85.298918,35.0613053 ]
    },
    "properties": {
    "NAME":"Girls Preparatory School"
    }
  },
  {
    "type": "Feature",
    "geometry": {
       "type": "Point",
       "coordinates":  [ -74.2064689,40.799419 ]
    },
    "properties": {
    "NAME":"Glen Ridge High School"
    }
  },
  {
    "type": "Feature",
    "geometry": {
       "type": "Point",
       "coordinates":  [ -88.0602219,41.879518 ]
    },
    "properties": {
    "NAME":"Glenbard West High School"
    }
  },
  {
    "type": "Feature",
    "geometry": {
       "type": "Point",
       "coordinates":  [ -81.699842,26.166801 ]
    },
    "properties": {
    "NAME":"Golden Gate High School"
    }
  },
  {
    "type": "Feature",
    "geometry": {
       "type": "Point",
       "coordinates":  [ -77.0109011,38.901716 ]
    },
    "properties": {
    "NAME":"Gonzaga College High School"
    }
  },
  {
    "type": "Feature",
    "geometry": {
       "type": "Point",
       "coordinates":  [ -87.6974254,41.9477612 ]
    },
    "properties": {
    "NAME":"Gordon Technical High School"
    }
  },
  {
    "type": "Feature",
    "geometry": {
       "type": "Point",
       "coordinates":  [ -70.4452066,43.6749354 ]
    },
    "properties": {
    "NAME":"Gorham High School"
    }
  },
  {
    "type": "Feature",
    "geometry": {
       "type": "Point",
       "coordinates":  [ -70.899488,42.751573 ]
    },
    "properties": {
    "NAME":"Governor's Academy"
    }
  },
  {
    "type": "Feature",
    "geometry": {
       "type": "Point",
       "coordinates":  [ -73.9913963,40.7287054 ]
    },
    "properties": {
    "NAME":"Grace Church School"
    }
  },
  {
    "type": "Feature",
    "geometry": {
       "type": "Point",
       "coordinates":  [ -71.6948676,42.2108784 ]
    },
    "properties": {
    "NAME":"Grafton Memorial Sr High Sch"
    }
  },
  {
    "type": "Feature",
    "geometry": {
       "type": "Point",
       "coordinates":  [ -73.987228,40.7353879 ]
    },
    "properties": {
    "NAME":"Gramercy Arts High School"
    }
  },
  {
    "type": "Feature",
    "geometry": {
       "type": "Point",
       "coordinates":  [ -76.8791604,34.8287768 ]
    },
    "properties": {
    "NAME":"Gramercy Christian School"
    }
  },
  {
    "type": "Feature",
    "geometry": {
       "type": "Point",
       "coordinates":  [ -121.7890729,37.6748734 ]
    },
    "properties": {
    "NAME":"Granada High School"
    }
  },
  {
    "type": "Feature",
    "geometry": {
       "type": "Point",
       "coordinates":  [ -88.158395,42.392854 ]
    },
    "properties": {
    "NAME":"Grant Community High School"
    }
  },
  {
    "type": "Feature",
    "geometry": {
       "type": "Point",
       "coordinates":  [ -121.4350538,38.6361628 ]
    },
    "properties": {
    "NAME":"Grant Union High School"
    }
  },
  {
    "type": "Feature",
    "geometry": {
       "type": "Point",
       "coordinates":  [ -79.3768165,40.2789706 ]
    },
    "properties": {
    "NAME":"Greater Latrobe Sr High School"
    }
  },
  {
    "type": "Feature",
    "geometry": {
       "type": "Point",
       "coordinates":  [ -78.8671964,35.8049364 ]
    },
    "properties": {
    "NAME":"Green Hope High School"
    }
  },
  {
    "type": "Feature",
    "geometry": {
       "type": "Point",
       "coordinates":  [ -72.582036,43.253131 ]
    },
    "properties": {
    "NAME":"Green Mountain Union High Sch"
    }
  },
  {
    "type": "Feature",
    "geometry": {
       "type": "Point",
       "coordinates":  [ -115.0533643,36.057796 ]
    },
    "properties": {
    "NAME":"Green Valley High School"
    }
  },
  {
    "type": "Feature",
    "geometry": {
       "type": "Point",
       "coordinates":  [ -96.844048,32.942326 ]
    },
    "properties": {
    "NAME":"Greenhill School"
    }
  },
  {
    "type": "Feature",
    "geometry": {
       "type": "Point",
       "coordinates":  [ -83.6786389,42.2853602 ]
    },
    "properties": {
    "NAME":"Greenhills School"
    }
  },
  {
    "type": "Feature",
    "geometry": {
       "type": "Point",
       "coordinates":  [ -73.3149754,41.1186928 ]
    },
    "properties": {
    "NAME":"Greens Farms Academy"
    }
  },
  {
    "type": "Feature",
    "geometry": {
       "type": "Point",
       "coordinates":  [ -73.626943,41.042033 ]
    },
    "properties": {
    "NAME":"Greenwich Academy"
    }
  },
  {
    "type": "Feature",
    "geometry": {
       "type": "Point",
       "coordinates":  [ -97.7192064,30.3127523 ]
    },
    "properties": {
    "NAME":"Griffin School the"
    }
  },
  {
    "type": "Feature",
    "geometry": {
       "type": "Point",
       "coordinates":  [ -82.9024146,42.3908404 ]
    },
    "properties": {
    "NAME":"Grosse Pointe South High Sch"
    }
  },
  {
    "type": "Feature",
    "geometry": {
       "type": "Point",
       "coordinates":  [ -71.5840156,42.5934946 ]
    },
    "properties": {
    "NAME":"Groton School"
    }
  },
  {
    "type": "Feature",
    "geometry": {
       "type": "Point",
       "coordinates":  [ -71.540555,42.650938 ]
    },
    "properties": {
    "NAME":"Groton-Dunstable Regl High Sch"
    }
  },
  {
    "type": "Feature",
    "geometry": {
       "type": "Point",
       "coordinates":  [ -82.8853549,39.8800922 ]
    },
    "properties": {
    "NAME":"Groveport-Madison Sr High Sch"
    }
  },
  {
    "type": "Feature",
    "geometry": {
       "type": "Point",
       "coordinates":  [ -89.0071774,42.2997353 ]
    },
    "properties": {
    "NAME":"Guilford High School"
    }
  },
  {
    "type": "Feature",
    "geometry": {
       "type": "Point",
       "coordinates":  [ -81.7072846,26.2714538 ]
    },
    "properties": {
    "NAME":"Gulf Coast High School"
    }
  },
  {
    "type": "Feature",
    "geometry": {
       "type": "Point",
       "coordinates":  [ -73.3115905,41.6279566 ]
    },
    "properties": {
    "NAME":"Gunnery School"
    }
  },
  {
    "type": "Feature",
    "geometry": {
       "type": "Point",
       "coordinates":  [ -77.111912,38.900174 ]
    },
    "properties": {
    "NAME":"H B Woodlawn"
    }
  },
  {
    "type": "Feature",
    "geometry": {
       "type": "Point",
       "coordinates":  [ -73.8433723,41.0701861 ]
    },
    "properties": {
    "NAME":"Hackley School"
    }
  },
  {
    "type": "Feature",
    "geometry": {
       "type": "Point",
       "coordinates":  [ -75.0264294,39.9019489 ]
    },
    "properties": {
    "NAME":"Haddonfield Memorial High Sch"
    }
  },
  {
    "type": "Feature",
    "geometry": {
       "type": "Point",
       "coordinates":  [ -73.9552785,41.4240565 ]
    },
    "properties": {
    "NAME":"Haldane High School"
    }
  },
  {
    "type": "Feature",
    "geometry": {
       "type": "Point",
       "coordinates":  [ -72.9223406,41.367806 ]
    },
    "properties": {
    "NAME":"Hamden High School"
    }
  },
  {
    "type": "Feature",
    "geometry": {
       "type": "Point",
       "coordinates":  [ -95.907001,36.1871968 ]
    },
    "properties": {
    "NAME":"Hamilton School"
    }
  },
  {
    "type": "Feature",
    "geometry": {
       "type": "Point",
       "coordinates":  [ -70.8477637,42.6287051 ]
    },
    "properties": {
    "NAME":"Hamilton-Wenham Regional H S"
    }
  },
  {
    "type": "Feature",
    "geometry": {
       "type": "Point",
       "coordinates":  [ -119.6621343,36.3302428 ]
    },
    "properties": {
    "NAME":"Hanford West High School"
    }
  },
  {
    "type": "Feature",
    "geometry": {
       "type": "Point",
       "coordinates":  [ -77.3847555,37.688381 ]
    },
    "properties": {
    "NAME":"Hanover High School"
    }
  },
  {
    "type": "Feature",
    "geometry": {
       "type": "Point",
       "coordinates":  [ -87.6210565,41.7183937 ]
    },
    "properties": {
    "NAME":"Harlan Community Academy"
    }
  },
  {
    "type": "Feature",
    "geometry": {
       "type": "Point",
       "coordinates":  [ -95.3385199,41.6579172 ]
    },
    "properties": {
    "NAME":"Harlan Community High School"
    }
  },
  {
    "type": "Feature",
    "geometry": {
       "type": "Point",
       "coordinates":  [ -73.9406654,40.8211816 ]
    },
    "properties": {
    "NAME":"Harlem Village Academy high school"
    }
  },
  {
    "type": "Feature",
    "geometry": {
       "type": "Point",
       "coordinates":  [ -97.389348,32.625351 ]
    },
    "properties": {
    "NAME":"Harmony School of Innovation"
    }
  },
  {
    "type": "Feature",
    "geometry": {
       "type": "Point",
       "coordinates":  [ -86.8405834,36.101201 ]
    },
    "properties": {
    "NAME":"Harpeth Hall School"
    }
  },
  {
    "type": "Feature",
    "geometry": {
       "type": "Point",
       "coordinates":  [ -75.3167449,40.0422008 ]
    },
    "properties": {
    "NAME":"Harriton High Sch Lower Merion"
    }
  },
  {
    "type": "Feature",
    "geometry": {
       "type": "Point",
       "coordinates":  [ -88.341324,42.166952 ]
    },
    "properties": {
    "NAME":"Harry D Jacobs High School"
    }
  },
  {
    "type": "Feature",
    "geometry": {
       "type": "Point",
       "coordinates":  [ -73.833329,40.874285 ]
    },
    "properties": {
    "NAME":"Harry S Truman High School"
    }
  },
  {
    "type": "Feature",
    "geometry": {
       "type": "Point",
       "coordinates":  [ -118.4340011,34.0887482 ]
    },
    "properties": {
    "NAME":"Harvard-Westlake School"
    }
  },
  {
    "type": "Feature",
    "geometry": {
       "type": "Point",
       "coordinates":  [ -73.9954131,40.7365985 ]
    },
    "properties": {
    "NAME":"Harvest Collegiate High School"
    }
  },
  {
    "type": "Feature",
    "geometry": {
       "type": "Point",
       "coordinates":  [ -73.665026,41.2584674 ]
    },
    "properties": {
    "NAME":"Harvey School"
    }
  },
  {
    "type": "Feature",
    "geometry": {
       "type": "Point",
       "coordinates":  [ -95.5970659,29.7091126 ]
    },
    "properties": {
    "NAME":"Hastings High School"
    }
  },
  {
    "type": "Feature",
    "geometry": {
       "type": "Point",
       "coordinates":  [ -81.5417396,41.4813271 ]
    },
    "properties": {
    "NAME":"Hathaway Brown School"
    }
  },
  {
    "type": "Feature",
    "geometry": {
       "type": "Point",
       "coordinates":  [ -155.69866,20.029658 ]
    },
    "properties": {
    "NAME":"Hawaii Preparatory Academy"
    }
  },
  {
    "type": "Feature",
    "geometry": {
       "type": "Point",
       "coordinates":  [ -122.2051295,37.807941 ]
    },
    "properties": {
    "NAME":"Head-Royce School"
    }
  },
  {
    "type": "Feature",
    "geometry": {
       "type": "Point",
       "coordinates":  [ -93.5319899,35.8660567 ]
    },
    "properties": {
    "NAME":"Headwaters School"
    }
  },
  {
    "type": "Feature",
    "geometry": {
       "type": "Point",
       "coordinates":  [ -118.3148305,34.0962737 ]
    },
    "properties": {
    "NAME":"Helen Bernstein High School"
    }
  },
  {
    "type": "Feature",
    "geometry": {
       "type": "Point",
       "coordinates":  [ -86.8690103,33.2764729 ]
    },
    "properties": {
    "NAME":"Helena High School"
    }
  },
  {
    "type": "Feature",
    "geometry": {
       "type": "Point",
       "coordinates":  [ -113.9966147,46.8628265 ]
    },
    "properties": {
    "NAME":"Hellgate High School"
    }
  },
  {
    "type": "Feature",
    "geometry": {
       "type": "Point",
       "coordinates":  [ -84.468991,38.0161777 ]
    },
    "properties": {
    "NAME":"Henry Clay High School"
    }
  },
  {
    "type": "Feature",
    "geometry": {
       "type": "Point",
       "coordinates":  [ -122.1334165,37.40252 ]
    },
    "properties": {
    "NAME":"Henry M Gunn Sr High School"
    }
  },
  {
    "type": "Feature",
    "geometry": {
       "type": "Point",
       "coordinates":  [ -73.839357,40.840173 ]
    },
    "properties": {
    "NAME":"Herbert H Lehman High School"
    }
  },
  {
    "type": "Feature",
    "geometry": {
       "type": "Point",
       "coordinates":  [ -118.270532,34.1657364 ]
    },
    "properties": {
    "NAME":"Herbert Hoover High School"
    }
  },