{
   "type": "FeatureCollection",
   "features": [
  {
    "type": "Feature",
    "geometry": {
       "type": "Point",
       "coordinates":  [ -155.0814688,19.701015 ]
    },
    "properties": {
    "NAME":"University of Hawaii at Hilo"
    }
  },
  {
    "type": "Feature",
    "geometry": {
       "type": "Point",
       "coordinates":  [ -155.0699525,19.7050194 ]
    },
    "properties": {
    "NAME":"Hawaii Community College"
    }
  },
  {
    "type": "Feature",
    "geometry": {
       "type": "Point",
       "coordinates":  [ -157.8171118,21.296939 ]
    },
    "properties": {
    "NAME":"University of Hawaii at Manoa"
    }
  },
  {
    "type": "Feature",
    "geometry": {
       "type": "Point",
       "coordinates":  [ -157.8607075,21.3102505 ]
    },
    "properties": {
    "NAME":"Hawaii Pacific University"
    }
  },
  {
    "type": "Feature",
    "geometry": {
       "type": "Point",
       "coordinates":  [ -157.925331,21.6420138 ]
    },
    "properties": {
    "NAME":"Brigham Young University- Hawaii"
    }
  },
  {
    "type": "Feature",
    "geometry": {
       "type": "Point",
       "coordinates":  [ -80.2771253,25.7191685 ]
    },
    "properties": {
    "NAME":"University of Miami"
    }
  },
  {
    "type": "Feature",
    "geometry": {
       "type": "Point",
       "coordinates":  [ -80.1016217,26.3761614 ]
    },
    "properties": {
    "NAME":"Florida Atlantic University"
    }
  },
  {
    "type": "Feature",
    "geometry": {
       "type": "Point",
       "coordinates":  [ -81.7733903,26.4643209 ]
    },
    "properties": {
    "NAME":"Florida Gulf Coast University"
    }
  },
  {
    "type": "Feature",
    "geometry": {
       "type": "Point",
       "coordinates":  [ -82.558703,27.384828 ]
    },
    "properties": {
    "NAME":"New College of Florida"
    }
  },
  {
    "type": "Feature",
    "geometry": {
       "type": "Point",
       "coordinates":  [ -99.4360703,27.5709965 ]
    },
    "properties": {
    "NAME":"Texas A&M International University"
    }
  },
  {
    "type": "Feature",
    "geometry": {
       "type": "Point",
       "coordinates":  [ -82.68816,27.715886 ]
    },
    "properties": {
    "NAME":"Eckerd College"
    }
  },
  {
    "type": "Feature",
    "geometry": {
       "type": "Point",
       "coordinates":  [ -82.4670028,27.9468036 ]
    },
    "properties": {
    "NAME":"University of Tampa"
    }
  },
  {
    "type": "Feature",
    "geometry": {
       "type": "Point",
       "coordinates":  [ -82.4138539,28.0587031 ]
    },
    "properties": {
    "NAME":"University of South Florida"
    }
  },
  {
    "type": "Feature",
    "geometry": {
       "type": "Point",
       "coordinates":  [ -81.348326,28.592242 ]
    },
    "properties": {
    "NAME":"Rollins College"
    }
  },
  {
    "type": "Feature",
    "geometry": {
       "type": "Point",
       "coordinates":  [ -98.4831622,29.4618444 ]
    },
    "properties": {
    "NAME":"Trinity University"
    }
  },
  {
    "type": "Feature",
    "geometry": {
       "type": "Point",
       "coordinates":  [ -98.6196556,29.5830446 ]
    },
    "properties": {
    "NAME":"University of Texas at San Antonio"
    }
  },
  {
    "type": "Feature",
    "geometry": {
       "type": "Point",
       "coordinates":  [ -82.3549302,29.6436325 ]
    },
    "properties": {
    "NAME":"University of Florida"
    }
  },
  {
    "type": "Feature",
    "geometry": {
       "type": "Point",
       "coordinates":  [ -95.4018312,29.7173941 ]
    },
    "properties": {
    "NAME":"Rice University"
    }
  },
  {
    "type": "Feature",
    "geometry": {
       "type": "Point",
       "coordinates":  [ -95.3422334,29.7199489 ]
    },
    "properties": {
    "NAME":"University of Houston"
    }
  },
  {
    "type": "Feature",
    "geometry": {
       "type": "Point",
       "coordinates":  [ -95.3598537,29.7662407 ]
    },
    "properties": {
    "NAME":"University of Houston: Downtown"
    }
  },
  {
    "type": "Feature",
    "geometry": {
       "type": "Point",
       "coordinates":  [ -81.3148867,29.8927054 ]
    },
    "properties": {
    "NAME":"Flagler College"
    }
  },
  {
    "type": "Feature",
    "geometry": {
       "type": "Point",
       "coordinates":  [ -90.1203782,29.935716 ]
    },
    "properties": {
    "NAME":"Loyola University New Orleans"
    }
  },
  {
    "type": "Feature",
    "geometry": {
       "type": "Point",
       "coordinates":  [ -90.1207279,29.9403477 ]
    },
    "properties": {
    "NAME":"Tulane University"
    }
  },
  {
    "type": "Feature",
    "geometry": {
       "type": "Point",
       "coordinates":  [ -90.107084,29.963863 ]
    },
    "properties": {
    "NAME":"Xavier University of Louisiana"
    }
  },
  {
    "type": "Feature",
    "geometry": {
       "type": "Point",
       "coordinates":  [ -90.0662662,29.9966395 ]
    },
    "properties": {
    "NAME":"Dillard University"
    }
  },
  {
    "type": "Feature",
    "geometry": {
       "type": "Point",
       "coordinates":  [ -94.075231,30.040144 ]
    },
    "properties": {
    "NAME":"Lamar University Beaumont"
    }
  },
  {
    "type": "Feature",
    "geometry": {
       "type": "Point",
       "coordinates":  [ -97.7340567,30.2849185 ]
    },
    "properties": {
    "NAME":"University of Texas at Austin"
    }
  },
  {
    "type": "Feature",
    "geometry": {
       "type": "Point",
       "coordinates":  [ -91.1800023,30.4132579 ]
    },
    "properties": {
    "NAME":"Louisiana State University"
    }
  },
  {
    "type": "Feature",
    "geometry": {
       "type": "Point",
       "coordinates":  [ -84.2874453,30.4238939 ]
    },
    "properties": {
    "NAME":"Florida A & M University"
    }
  },
  {
    "type": "Feature",
    "geometry": {
       "type": "Point",
       "coordinates":  [ -84.2984889,30.4418778 ]
    },
    "properties": {
    "NAME":"Florida State University"
    }
  },
  {
    "type": "Feature",
    "geometry": {
       "type": "Point",
       "coordinates":  [ -96.336499,30.618531 ]
    },
    "properties": {
    "NAME":"Texas A & M University"
    }
  },
  {
    "type": "Feature",
    "geometry": {
       "type": "Point",
       "coordinates":  [ -97.6651268,30.6349251 ]
    },
    "properties": {
    "NAME":"Southwestern University"
    }
  },
  {
    "type": "Feature",
    "geometry": {
       "type": "Point",
       "coordinates":  [ -97.1143046,31.5497007 ]
    },
    "properties": {
    "NAME":"Baylor University"
    }
  },
  {
    "type": "Feature",
    "geometry": {
       "type": "Point",
       "coordinates":  [ -81.0940516,32.0729232 ]
    },
    "properties": {
    "NAME":"Savannah College of Art & Design"
    }
  },
  {
    "type": "Feature",
    "geometry": {
       "type": "Point",
       "coordinates":  [ -90.1782623,32.322401 ]
    },
    "properties": {
    "NAME":"Millsaps College"
    }
  },
  {
    "type": "Feature",
    "geometry": {
       "type": "Point",
       "coordinates":  [ -92.6481104,32.5263753 ]
    },
    "properties": {
    "NAME":"Louisiana Tech University"
    }
  },
  {
    "type": "Feature",
    "geometry": {
       "type": "Point",
       "coordinates":  [ -97.3627717,32.709483 ]
    },
    "properties": {
    "NAME":"Texas Christian University"
    }
  },
  {
    "type": "Feature",
    "geometry": {
       "type": "Point",
       "coordinates":  [ -117.250694,32.716863 ]
    },
    "properties": {
    "NAME":"Point Loma Nazarene University"
    }
  },
  {
    "type": "Feature",
    "geometry": {
       "type": "Point",
       "coordinates":  [ -97.1140116,32.7298718 ]
    },
    "properties": {
    "NAME":"University of Texas at Arlington"
    }
  },
  {
    "type": "Feature",
    "geometry": {
       "type": "Point",
       "coordinates":  [ -117.0718893,32.7757217 ]
    },
    "properties": {
    "NAME":"San Diego State University"
    }
  },
  {
    "type": "Feature",
    "geometry": {
       "type": "Point",
       "coordinates":  [ -79.9371762,32.7836117 ]
    },
    "properties": {
    "NAME":"College of Charleston"
    }
  },
  {
    "type": "Feature",
    "geometry": {
       "type": "Point",
       "coordinates":  [ -79.9606739,32.797075 ]
    },
    "properties": {
    "NAME":"The Citadel"
    }
  },
  {
    "type": "Feature",
    "geometry": {
       "type": "Point",
       "coordinates":  [ -96.7845175,32.8412178 ]
    },
    "properties": {
    "NAME":"Southern Methodist University"
    }
  },
  {
    "type": "Feature",
    "geometry": {
       "type": "Point",
       "coordinates":  [ -117.2340135,32.8800604 ]
    },
    "properties": {
    "NAME":"University of California San Diego"
    }
  },
  {
    "type": "Feature",
    "geometry": {
       "type": "Point",
       "coordinates":  [ -96.7500993,32.9857619 ]
    },
    "properties": {
    "NAME":"University of Texas at Dallas"
    }
  },
  {
    "type": "Feature",
    "geometry": {
       "type": "Point",
       "coordinates":  [ -83.2318054,33.0798884 ]
    },
    "properties": {
    "NAME":"Georgia College & State University"
    }
  },
  {
    "type": "Feature",
    "geometry": {
       "type": "Point",
       "coordinates":  [ -117.1591368,33.1291944 ]
    },
    "properties": {
    "NAME":"California State University San Marcos"
    }
  },
  {
    "type": "Feature",
    "geometry": {
       "type": "Point",
       "coordinates":  [ -97.1525862,33.207488 ]
    },
    "properties": {
    "NAME":"University of North Texas"
    }
  },
  {
    "type": "Feature",
    "geometry": {
       "type": "Point",
       "coordinates":  [ -87.5391418,33.2140233 ]
    },
    "properties": {
    "NAME":"University of Alabama"
    }
  },
  {
    "type": "Feature",
    "geometry": {
       "type": "Point",
       "coordinates":  [ -111.9280527,33.4242399 ]
    },
    "properties": {
    "NAME":"Arizona State University"
    }
  },
  {
    "type": "Feature",
    "geometry": {
       "type": "Point",
       "coordinates":  [ -88.7943766,33.4551742 ]
    },
    "properties": {
    "NAME":"Mississippi State University"
    }
  },
  {
    "type": "Feature",
    "geometry": {
       "type": "Point",
       "coordinates":  [ -81.9932536,33.4695551 ]
    },
    "properties": {
    "NAME":"Paine College"
    }
  },
  {
    "type": "Feature",
    "geometry": {
       "type": "Point",
       "coordinates":  [ -80.8532251,33.4988288 ]
    },
    "properties": {
    "NAME":"Claflin University"
    }
  },
  {
    "type": "Feature",
    "geometry": {
       "type": "Point",
       "coordinates":  [ -86.8064447,33.5021227 ]
    },
    "properties": {
    "NAME":"University of Alabama at Birmingham"
    }
  },
  {
    "type": "Feature",
    "geometry": {
       "type": "Point",
       "coordinates":  [ -86.8514824,33.5159053 ]
    },
    "properties": {
    "NAME":"Birmingham-Southern College"
    }
  },
  {
    "type": "Feature",
    "geometry": {
       "type": "Point",
       "coordinates":  [ -101.8782822,33.5842591 ]
    },
    "properties": {
    "NAME":"Texas Tech University"
    }
  },
  {
    "type": "Feature",
    "geometry": {
       "type": "Point",
       "coordinates":  [ -117.8442962,33.6404952 ]
    },
    "properties": {
    "NAME":"University of California Irvine"
    }
  },
  {
    "type": "Feature",
    "geometry": {
       "type": "Point",
       "coordinates":  [ -96.594854,33.64626 ]
    },
    "properties": {
    "NAME":"Austin College"
    }
  },
  {
    "type": "Feature",
    "geometry": {
       "type": "Point",
       "coordinates":  [ -117.9016912,33.6618632 ]
    },
    "properties": {
    "NAME":"Vanguard University of Southern California"
    }
  },
  {
    "type": "Feature",
    "geometry": {
       "type": "Point",
       "coordinates":  [ -84.4138651,33.7459553 ]
    },
    "properties": {
    "NAME":"Morehouse College"
    }
  },
  {
    "type": "Feature",
    "geometry": {
       "type": "Point",
       "coordinates":  [ -84.4122934,33.7463597 ]
    },
    "properties": {
    "NAME":"Spelman College"
    }
  },
  {
    "type": "Feature",
    "geometry": {
       "type": "Point",
       "coordinates":  [ -84.413063,33.74825 ]
    },
    "properties": {
    "NAME":"Clark Atlanta University"
    }
  },
  {
    "type": "Feature",
    "geometry": {
       "type": "Point",
       "coordinates":  [ -84.3852819,33.753068 ]
    },
    "properties": {
    "NAME":"Georgia State University"
    }
  },
  {
    "type": "Feature",
    "geometry": {
       "type": "Point",
       "coordinates":  [ -84.2945537,33.7692226 ]
    },
    "properties": {
    "NAME":"Agnes Scott College"
    }
  },
  {
    "type": "Feature",
    "geometry": {
       "type": "Point",
       "coordinates":  [ -118.1140904,33.7838235 ]
    },
    "properties": {
    "NAME":"California State University Long Beach"
    }
  },
  {
    "type": "Feature",
    "geometry": {
       "type": "Point",
       "coordinates":  [ -84.3239989,33.7925195 ]
    },
    "properties": {
    "NAME":"Emory University"
    }
  },
  {
    "type": "Feature",
    "geometry": {
       "type": "Point",
       "coordinates":  [ -117.8513503,33.7933476 ]
    },
    "properties": {
    "NAME":"Chapman University"
    }
  },
  {
    "type": "Feature",
    "geometry": {
       "type": "Point",
       "coordinates":  [ -83.3773221,33.9480053 ]
    },
    "properties": {
    "NAME":"University of Georgia"
    }
  },
  {
    "type": "Feature",
    "geometry": {
       "type": "Point",
       "coordinates":  [ -118.4184969,33.9698183 ]
    },
    "properties": {
    "NAME":"Loyola Marymount University"
    }
  },
  {
    "type": "Feature",
    "geometry": {
       "type": "Point",
       "coordinates":  [ -117.3280644,33.9737055 ]
    },
    "properties": {
    "NAME":"University of California Riverside"
    }
  },
  {
    "type": "Feature",
    "geometry": {
       "type": "Point",
       "coordinates":  [ -118.0322842,33.9787932 ]
    },
    "properties": {
    "NAME":"Whittier College"
    }
  },
  {
    "type": "Feature",
    "geometry": {
       "type": "Point",
       "coordinates":  [ -84.0054164,33.97908 ]
    },
    "properties": {
    "NAME":"Georgia Gwinnett College"
    }
  },
  {
    "type": "Feature",
    "geometry": {
       "type": "Point",
       "coordinates":  [ -81.0274276,33.996112 ]
    },
    "properties": {
    "NAME":"University of South Carolina"
    }
  },
  {
    "type": "Feature",
    "geometry": {
       "type": "Point",
       "coordinates":  [ -118.285117,34.0223519 ]
    },
    "properties": {
    "NAME":"University of Southern California"
    }
  },
  {
    "type": "Feature",
    "geometry": {
       "type": "Point",
       "coordinates":  [ -117.1638403,34.0639966 ]
    },
    "properties": {
    "NAME":"University of Redlands"
    }
  },
  {
    "type": "Feature",
    "geometry": {
       "type": "Point",
       "coordinates":  [ -118.4451811,34.068921 ]
    },
    "properties": {
    "NAME":"University of California Los Angeles"
    }
  },
  {
    "type": "Feature",
    "geometry": {
       "type": "Point",
       "coordinates":  [ -117.711803,34.097743 ]
    },
    "properties": {
    "NAME":"Pomona College"
    }
  },
  {
    "type": "Feature",
    "geometry": {
       "type": "Point",
       "coordinates":  [ -117.7079219,34.1017767 ]
    },
    "properties": {
    "NAME":"Claremont McKenna College"
    }
  },
  {
    "type": "Feature",
    "geometry": {
       "type": "Point",
       "coordinates":  [ -117.7102128,34.1039348 ]
    },
    "properties": {
    "NAME":"Scripps College"
    }
  },
  {
    "type": "Feature",
    "geometry": {
       "type": "Point",
       "coordinates":  [ -117.7047193,34.1046624 ]
    },
    "properties": {
    "NAME":"Pitzer College"
    }
  },
  {
    "type": "Feature",
    "geometry": {
       "type": "Point",
       "coordinates":  [ -117.7104699,34.1060817 ]
    },
    "properties": {
    "NAME":"Harvey Mudd College"
    }
  },
  {
    "type": "Feature",
    "geometry": {
       "type": "Point",
       "coordinates":  [ -118.2102962,34.1273233 ]
    },
    "properties": {
    "NAME":"Occidental College"
    }
  },
  {
    "type": "Feature",
    "geometry": {
       "type": "Point",
       "coordinates":  [ -117.8883593,34.1300755 ]
    },
    "properties": {
    "NAME":"Azusa Pacific University"
    }
  },
  {
    "type": "Feature",
    "geometry": {
       "type": "Point",
       "coordinates":  [ -77.8701325,34.2239869 ]
    },
    "properties": {
    "NAME":"University of North Carolina at Wilmington"
    }
  },
  {
    "type": "Feature",
    "geometry": {
       "type": "Point",
       "coordinates":  [ -118.8788537,34.2250167 ]
    },
    "properties": {
    "NAME":"California Lutheran University"
    }
  },
  {
    "type": "Feature",
    "geometry": {
       "type": "Point",
       "coordinates":  [ -85.189199,34.290361 ]
    },
    "properties": {
    "NAME":"Berry College"
    }
  },
  {
    "type": "Feature",
    "geometry": {
       "type": "Point",
       "coordinates":  [ -89.538443,34.3647324 ]
    },
    "properties": {
    "NAME":"University of Mississippi"
    }
  },
  {
    "type": "Feature",
    "geometry": {
       "type": "Point",
       "coordinates":  [ -119.848947,34.4139629 ]
    },
    "properties": {
    "NAME":"University of California Santa Barbara"
    }
  },
  {
    "type": "Feature",
    "geometry": {
       "type": "Point",
       "coordinates":  [ -81.877559,34.465182 ]
    },
    "properties": {
    "NAME":"Presbyterian College"
    }
  },
  {
    "type": "Feature",
    "geometry": {
       "type": "Point",
       "coordinates":  [ -112.4765736,34.544785 ]
    },
    "properties": {
    "NAME":"Prescott College"
    }
  },
  {
    "type": "Feature",
    "geometry": {
       "type": "Point",
       "coordinates":  [ -112.4507711,34.6161042 ]
    },
    "properties": {
    "NAME":"Embry-Riddle Aeronautical University: Prescott"
    }
  },
  {
    "type": "Feature",
    "geometry": {
       "type": "Point",
       "coordinates":  [ -82.8364148,34.6760942 ]
    },
    "properties": {
    "NAME":"Clemson University"
    }
  },
  {
    "type": "Feature",
    "geometry": {
       "type": "Point",
       "coordinates":  [ -79.2005721,34.6898838 ]
    },
    "properties": {
    "NAME":"University of North Carolina at Pembroke"
    }
  },
  {
    "type": "Feature",
    "geometry": {
       "type": "Point",
       "coordinates":  [ -92.3388872,34.7240568 ]
    },
    "properties": {
    "NAME":"University of Arkansas at Little Rock"
    }
  },
  {
    "type": "Feature",
    "geometry": {
       "type": "Point",
       "coordinates":  [ -92.2829693,34.7371492 ]
    },
    "properties": {
    "NAME":"Philander Smith College"
    }
  },
  {
    "type": "Feature",
    "geometry": {
       "type": "Point",
       "coordinates":  [ -87.6811676,34.8074555 ]
    },
    "properties": {
    "NAME":"University of North Alabama"
    }
  },
  {
    "type": "Feature",
    "geometry": {
       "type": "Point",
       "coordinates":  [ -82.4382693,34.9237 ]
    },
    "properties": {
    "NAME":"Furman University"
    }
  },
  {
    "type": "Feature",
    "geometry": {
       "type": "Point",
       "coordinates":  [ -81.0321286,34.939393 ]
    },
    "properties": {
    "NAME":"Winthrop University"
    }
  },
  {
    "type": "Feature",
    "geometry": {
       "type": "Point",
       "coordinates":  [ -81.9344902,34.9580657 ]
    },
    "properties": {
    "NAME":"Wofford College"
    }
  },
  {
    "type": "Feature",
    "geometry": {
       "type": "Point",
       "coordinates":  [ -101.9158947,34.9829122 ]
    },
    "properties": {
    "NAME":"West Texas A&M University"
    }
  },
  {
    "type": "Feature",
    "geometry": {
       "type": "Point",
       "coordinates":  [ -85.2944703,35.0464068 ]
    },
    "properties": {
    "NAME":"University of Tennessee At Chattanooga"
    }
  },
  {
    "type": "Feature",
    "geometry": {
       "type": "Point",
       "coordinates":  [ -106.6197812,35.0843187 ]
    },
    "properties": {
    "NAME":"University of New Mexico"
    }
  },
  {
    "type": "Feature",
    "geometry": {
       "type": "Point",
       "coordinates":  [ -92.4420118,35.1000469 ]
    },
    "properties": {
    "NAME":"Hendrix College"
    }
  },
  {
    "type": "Feature",
    "geometry": {
       "type": "Point",
       "coordinates":  [ -78.8682792,35.1314591 ]
    },
    "properties": {
    "NAME":"Methodist University"
    }
  },
  {
    "type": "Feature",
    "geometry": {
       "type": "Point",
       "coordinates":  [ -89.9892872,35.1550839 ]
    },
    "properties": {
    "NAME":"Rhodes College"
    }
  },
  {
    "type": "Feature",
    "geometry": {
       "type": "Point",
       "coordinates":  [ -111.6547075,35.1851895 ]
    },
    "properties": {
    "NAME":"Northern Arizona University"
    }
  },
  {
    "type": "Feature",
    "geometry": {
       "type": "Point",
       "coordinates":  [ -85.9176605,35.20518 ]
    },
    "properties": {
    "NAME":"University of the South"
    }
  },
  {
    "type": "Feature",
    "geometry": {
       "type": "Point",
       "coordinates":  [ -97.4457137,35.2058936 ]
    },
    "properties": {
    "NAME":"University of Oklahoma"
    }
  },
  {
    "type": "Feature",
    "geometry": {
       "type": "Point",
       "coordinates":  [ -120.6624942,35.3050053 ]
    },
    "properties": {
    "NAME":"California Polytechnic State University"
    }
  },
  {
    "type": "Feature",
    "geometry": {
       "type": "Point",
       "coordinates":  [ -80.735164,35.3070929 ]
    },
    "properties": {
    "NAME":"University of North Carolina at Charlotte"
    }
  },
  {
    "type": "Feature",
    "geometry": {
       "type": "Point",
       "coordinates":  [ -80.8467793,35.5017318 ]
    },
    "properties": {
    "NAME":"Davidson College"
    }
  },
  {
    "type": "Feature",
    "geometry": {
       "type": "Point",
       "coordinates":  [ -77.3645653,35.6055108 ]
    },
    "properties": {
    "NAME":"East Carolina University"
    }
  },
  {
    "type": "Feature",
    "geometry": {
       "type": "Point",
       "coordinates":  [ -82.442286,35.611133 ]
    },
    "properties": {
    "NAME":"Warren Wilson College"
    }
  },
  {
    "type": "Feature",
    "geometry": {
       "type": "Point",
       "coordinates":  [ -82.5673127,35.6162921 ]
    },
    "properties": {
    "NAME":"University of North Carolina at Asheville"
    }
  },
  {
    "type": "Feature",
    "geometry": {
       "type": "Point",
       "coordinates":  [ -78.7047179,35.6515968 ]
    },
    "properties": {
    "NAME":"Wake Technical Community College"
    }
  },
  {
    "type": "Feature",
    "geometry": {
       "type": "Point",
       "coordinates":  [ -91.6262059,35.7782924 ]
    },
    "properties": {
    "NAME":"Lyon College"
    }
  },
  {
    "type": "Feature",
    "geometry": {
       "type": "Point",
       "coordinates":  [ -78.6820946,35.7846633 ]
    },
    "properties": {
    "NAME":"North Carolina State University"
    }
  },
  {
    "type": "Feature",
    "geometry": {
       "type": "Point",
       "coordinates":  [ -78.6884823,35.7989768 ]
    },
    "properties": {
    "NAME":"Meredith College"
    }
  },
  {
    "type": "Feature",
    "geometry": {
       "type": "Point",
       "coordinates":  [ -86.3648813,35.8486105 ]
    },
    "properties": {
    "NAME":"Middle Tennessee State University"
    }
  },
  {
    "type": "Feature",
    "geometry": {
       "type": "Point",
       "coordinates":  [ -79.0469134,35.9049122 ]
    },
    "properties": {
    "NAME":"University of North Carolina at Chapel Hill"
    }
  },
  {
    "type": "Feature",
    "geometry": {
       "type": "Point",
       "coordinates":  [ -83.9294564,35.9544013 ]
    },
    "properties": {
    "NAME":"University of Tennessee-Knoxville"
    }
  },
  {
    "type": "Feature",
    "geometry": {
       "type": "Point",
       "coordinates":  [ -79.9953079,35.9723841 ]
    },
    "properties": {
    "NAME":"High Point University"
    }
  },
  {
    "type": "Feature",
    "geometry": {
       "type": "Point",
       "coordinates":  [ -78.8981013,35.974737 ]
    },
    "properties": {
    "NAME":"North Carolina Central University"
    }
  },
  {
    "type": "Feature",
    "geometry": {
       "type": "Point",
       "coordinates":  [ -78.9382286,36.0014258 ]
    },
    "properties": {
    "NAME":"Duke University"
    }
  },
  {
    "type": "Feature",
    "geometry": {
       "type": "Point",
       "coordinates":  [ -94.1736551,36.0678324 ]
    },
    "properties": {
    "NAME":"University of Arkansas"
    }
  },
  {
    "type": "Feature",
    "geometry": {
       "type": "Point",
       "coordinates":  [ -79.779216,36.067872 ]
    },
    "properties": {
    "NAME":"Bennett College"
    }
  },
  {
    "type": "Feature",
    "geometry": {
       "type": "Point",
       "coordinates":  [ -79.7733669,36.0725903 ]
    },
    "properties": {
    "NAME":"North Carolina A&T State University"
    }
  },
  {
    "type": "Feature",
    "geometry": {
       "type": "Point",
       "coordinates":  [ -79.8887399,36.0917988 ]
    },
    "properties": {
    "NAME":"Guilford College"
    }
  },
  {
    "type": "Feature",
    "geometry": {
       "type": "Point",
       "coordinates":  [ -79.5023567,36.1027527 ]
    },
    "properties": {
    "NAME":"Elon University"
    }
  },
  {
    "type": "Feature",
    "geometry": {
       "type": "Point",
       "coordinates":  [ -80.2763425,36.1352495 ]
    },
    "properties": {
    "NAME":"Wake Forest University"
    }
  },
  {
    "type": "Feature",
    "geometry": {
       "type": "Point",
       "coordinates":  [ -88.515059,36.142499 ]
    },
    "properties": {
    "NAME":"Bethel University"
    }
  },
  {
    "type": "Feature",
    "geometry": {
       "type": "Point",
       "coordinates":  [ -86.8026551,36.1447034 ]
    },
    "properties": {
    "NAME":"Vanderbilt University"
    }
  },
  {
    "type": "Feature",
    "geometry": {
       "type": "Point",
       "coordinates":  [ -95.946,36.1519879 ]
    },
    "properties": {
    "NAME":"University of Tulsa"
    }
  },
  {
    "type": "Feature",
    "geometry": {
       "type": "Point",
       "coordinates":  [ -81.6841448,36.2134842 ]
    },
    "properties": {
    "NAME":"Appalachian State University"
    }
  },
  {
    "type": "Feature",
    "geometry": {
       "type": "Point",
       "coordinates":  [ -95.9562753,36.7176443 ]
    },
    "properties": {
    "NAME":"Oklahoma Wesleyan University"
    }
  },
  {
    "type": "Feature",
    "geometry": {
       "type": "Point",
       "coordinates":  [ -76.262085,36.8480161 ]
    },
    "properties": {
    "NAME":"Norfolk State University"
    }
  },
  {
    "type": "Feature",
    "geometry": {
       "type": "Point",
       "coordinates":  [ -76.1866644,36.8674624 ]
    },
    "properties": {
    "NAME":"Virginia Wesleyan University"
    }
  },
  {
    "type": "Feature",
    "geometry": {
       "type": "Point",
       "coordinates":  [ -86.456138,36.9853543 ]
    },
    "properties": {
    "NAME":"Western Kentucky University"
    }
  },
  {
    "type": "Feature",
    "geometry": {
       "type": "Point",
       "coordinates":  [ -122.0582972,36.9914738 ]
    },
    "properties": {
    "NAME":"University of California Santa Cruz"
    }
  },
  {
    "type": "Feature",
    "geometry": {
       "type": "Point",
       "coordinates":  [ -76.3343603,37.0228392 ]
    },
    "properties": {
    "NAME":"Hampton University"
    }
  },
  {
    "type": "Feature",
    "geometry": {
       "type": "Point",
       "coordinates":  [ -76.4944384,37.0646188 ]
    },
    "properties": {
    "NAME":"Christopher Newport University"
    }
  },
  {
    "type": "Feature",
    "geometry": {
       "type": "Point",
       "coordinates":  [ -95.712891,37.09024 ]
    },
    "properties": {
    "NAME":"Simmons College"
    }
  },
  {
    "type": "Feature",
    "geometry": {
       "type": "Point",
       "coordinates":  [ -85.3015101,37.1027852 ]
    },
    "properties": {
    "NAME":"Lindsey Wilson College"
    }
  },
  {
    "type": "Feature",
    "geometry": {
       "type": "Point",
       "coordinates":  [ -80.4234167,37.2283843 ]
    },
    "properties": {
    "NAME":"Virginia Polytechnic Institute and State University"
    }
  },
  {
    "type": "Feature",
    "geometry": {
       "type": "Point",
       "coordinates":  [ -122.0122039,37.2636087 ]
    },
    "properties": {
    "NAME":"West Valley College"
    }
  },
  {
    "type": "Feature",
    "geometry": {
       "type": "Point",
       "coordinates":  [ -76.713378,37.271674 ]
    },
    "properties": {
    "NAME":"College of William and Mary"
    }
  },
  {
    "type": "Feature",
    "geometry": {
       "type": "Point",
       "coordinates":  [ -107.8710381,37.2737453 ]
    },
    "properties": {
    "NAME":"Fort Lewis College"
    }
  },
  {
    "type": "Feature",
    "geometry": {
       "type": "Point",
       "coordinates":  [ -80.054927,37.294248 ]
    },
    "properties": {
    "NAME":"Roanoke College"
    }
  },
  {
    "type": "Feature",
    "geometry": {
       "type": "Point",
       "coordinates":  [ -78.3961973,37.2971798 ]
    },
    "properties": {
    "NAME":"Longwood University"
    }
  },
  {
    "type": "Feature",
    "geometry": {
       "type": "Point",
       "coordinates":  [ -122.0449458,37.3188255 ]
    },
    "properties": {
    "NAME":"De Anza College"
    }
  },
  {
    "type": "Feature",
    "geometry": {
       "type": "Point",
       "coordinates":  [ -121.8810715,37.3351874 ]
    },
    "properties": {
    "NAME":"San Jose State University"
    }
  },
  {
    "type": "Feature",
    "geometry": {
       "type": "Point",
       "coordinates":  [ -121.9389875,37.3496418 ]
    },
    "properties": {
    "NAME":"Santa Clara University"
    }
  },
  {
    "type": "Feature",
    "geometry": {
       "type": "Point",
       "coordinates":  [ -122.1265617,37.3602775 ]
    },
    "properties": {
    "NAME":"Foothill College"
    }
  },
  {
    "type": "Feature",
    "geometry": {
       "type": "Point",
       "coordinates":  [ -122.169719,37.4274745 ]
    },
    "properties": {
    "NAME":"Stanford University"
    }
  },
  {
    "type": "Feature",
    "geometry": {
       "type": "Point",
       "coordinates":  [ -79.172197,37.436964 ]
    },
    "properties": {
    "NAME":"Randolph College"
    }
  },
  {
    "type": "Feature",
    "geometry": {
       "type": "Point",
       "coordinates":  [ -122.28487,37.517299 ]
    },
    "properties": {
    "NAME":"Notre Dame de Namur University"
    }
  },
  {
    "type": "Feature",
    "geometry": {
       "type": "Point",
       "coordinates":  [ -77.4509718,37.5495048 ]
    },
    "properties": {
    "NAME":"Virginia Commonwealth University"
    }
  },
  {
    "type": "Feature",
    "geometry": {
       "type": "Point",
       "coordinates":  [ -79.0828644,37.5576478 ]
    },
    "properties": {
    "NAME":"Sweet Briar College"
    }
  },
  {
    "type": "Feature",
    "geometry": {
       "type": "Point",
       "coordinates":  [ -84.2878891,37.5749016 ]
    },
    "properties": {
    "NAME":"Berea College"
    }
  },
  {
    "type": "Feature",
    "geometry": {
       "type": "Point",
       "coordinates":  [ -77.5409744,37.5758681 ]
    },
    "properties": {
    "NAME":"University of Richmond"
    }
  },
  {
    "type": "Feature",
    "geometry": {
       "type": "Point",
       "coordinates":  [ -84.7815059,37.6456916 ]
    },
    "properties": {
    "NAME":"Centre College"
    }
  },
  {
    "type": "Feature",
    "geometry": {
       "type": "Point",
       "coordinates":  [ -89.2249134,37.7090577 ]
    },
    "properties": {
    "NAME":"Southern Illinois University Carbondale"
    }
  },
  {
    "type": "Feature",
    "geometry": {
       "type": "Point",
       "coordinates":  [ -122.4782094,37.721897 ]
    },
    "properties": {
    "NAME":"San Francisco State University"
    }
  },
  {
    "type": "Feature",
    "geometry": {
       "type": "Point",
       "coordinates":  [ -122.4510586,37.7256557 ]
    },
    "properties": {
    "NAME":"City College of San Francisco"
    }
  },
  {
    "type": "Feature",
    "geometry": {
       "type": "Point",
       "coordinates":  [ -84.298672,37.7353214 ]
    },
    "properties": {
    "NAME":"Eastern Kentucky University"
    }
  },
  {
    "type": "Feature",
    "geometry": {
       "type": "Point",
       "coordinates":  [ -77.4783518,37.7603794 ]
    },
    "properties": {
    "NAME":"Randolph-Macon College"
    }
  },
  {
    "type": "Feature",
    "geometry": {
       "type": "Point",
       "coordinates":  [ -122.4506413,37.7765141 ]
    },
    "properties": {
    "NAME":"University of San Francisco"
    }
  },
  {
    "type": "Feature",
    "geometry": {
       "type": "Point",
       "coordinates":  [ -122.1878385,37.7826845 ]
    },
    "properties": {
    "NAME":"Mills College"
    }
  },
  {
    "type": "Feature",
    "geometry": {
       "type": "Point",
       "coordinates":  [ -79.43946,37.788981 ]
    },
    "properties": {
    "NAME":"Virginia Military Institute"
    }
  },
  {
    "type": "Feature",
    "geometry": {
       "type": "Point",
       "coordinates":  [ -79.4449563,37.7904861 ]
    },
    "properties": {
    "NAME":"Washington and Lee University"
    }
  },
  {
    "type": "Feature",
    "geometry": {
       "type": "Point",
       "coordinates":  [ -122.417167,37.803376 ]
    },
    "properties": {
    "NAME":"San Francisco Art Institute"
    }
  },
  {
    "type": "Feature",
    "geometry": {
       "type": "Point",
       "coordinates":  [ -122.2585399,37.8718992 ]
    },
    "properties": {
    "NAME":"University of California Berkeley"
    }
  },
  {
    "type": "Feature",
    "geometry": {
       "type": "Point",
       "coordinates":  [ -122.5496,37.955595 ]
    },
    "properties": {
    "NAME":"College of Marin"
    }
  },
  {
    "type": "Feature",
    "geometry": {
       "type": "Point",
       "coordinates":  [ -122.0712913,37.9689478 ]
    },
    "properties": {
    "NAME":"Diablo Valley College"
    }
  },
  {
    "type": "Feature",
    "geometry": {
       "type": "Point",
       "coordinates":  [ -87.5317064,37.9721221 ]
    },
    "properties": {
    "NAME":"University of Evansville"
    }
  },
  {
    "type": "Feature",
    "geometry": {
       "type": "Point",
       "coordinates":  [ -121.3120225,37.9808152 ]
    },
    "properties": {
    "NAME":"University of the Pacific"
    }
  },
  {
    "type": "Feature",
    "geometry": {
       "type": "Point",
       "coordinates":  [ -84.5039697,38.0306511 ]
    },
    "properties": {
    "NAME":"University of Kentucky"
    }
  },
  {
    "type": "Feature",
    "geometry": {
       "type": "Point",
       "coordinates":  [ -78.5079772,38.0335529 ]
    },
    "properties": {
    "NAME":"University of Virginia"
    }
  },
  {
    "type": "Feature",
    "geometry": {
       "type": "Point",
       "coordinates":  [ -84.4936508,38.053147 ]
    },
    "properties": {
    "NAME":"Transylvania University"
    }
  },
  {
    "type": "Feature",
    "geometry": {
       "type": "Point",
       "coordinates":  [ -85.7585023,38.2122761 ]
    },
    "properties": {
    "NAME":"University of Louisville"
    }
  },
  {
    "type": "Feature",
    "geometry": {
       "type": "Point",
       "coordinates":  [ -77.47447,38.3013039 ]
    },
    "properties": {
    "NAME":"University of Mary Washington"
    }
  },
  {
    "type": "Feature",
    "geometry": {
       "type": "Point",
       "coordinates":  [ -122.6859077,38.3381568 ]
    },
    "properties": {
    "NAME":"Sonoma State University"
    }
  },
  {
    "type": "Feature",
    "geometry": {
       "type": "Point",
       "coordinates":  [ -78.8697548,38.435092 ]
    },
    "properties": {
    "NAME":"James Madison University"
    }
  },
  {
    "type": "Feature",
    "geometry": {
       "type": "Point",
       "coordinates":  [ -122.7201417,38.4551932 ]
    },
    "properties": {
    "NAME":"Santa Rosa Junior College"
    }
  },
  {
    "type": "Feature",
    "geometry": {
       "type": "Point",
       "coordinates":  [ -121.7617125,38.5382322 ]
    },
    "properties": {
    "NAME":"University of California Davis"
    }
  },
  {
    "type": "Feature",
    "geometry": {
       "type": "Point",
       "coordinates":  [ -92.1712833,38.5628374 ]
    },
    "properties": {
    "NAME":"Lincoln University-Missouri"
    }
  },
  {
    "type": "Feature",
    "geometry": {
       "type": "Point",
       "coordinates":  [ -90.1906956,38.6226733 ]
    },
    "properties": {
    "NAME":"St. Louis Community College"
    }
  },
  {
    "type": "Feature",
    "geometry": {
       "type": "Point",
       "coordinates":  [ -90.2338232,38.6354598 ]
    },
    "properties": {
    "NAME":"St. Louis University"
    }
  },
  {
    "type": "Feature",
    "geometry": {
       "type": "Point",
       "coordinates":  [ -90.3107962,38.6487895 ]
    },
    "properties": {
    "NAME":"Washington University in St. Louis"
    }
  },
  {
    "type": "Feature",
    "geometry": {
       "type": "Point",
       "coordinates":  [ -77.3119442,38.8314875 ]
    },
    "properties": {
    "NAME":"George Mason University"
    }
  },
  {
    "type": "Feature",
    "geometry": {
       "type": "Point",
       "coordinates":  [ -104.824394,38.846594 ]
    },
    "properties": {
    "NAME":"Colorado College"
    }
  },
  {
    "type": "Feature",
    "geometry": {
       "type": "Point",
       "coordinates":  [ -104.8050594,38.8964679 ]
    },
    "properties": {
    "NAME":"University of Colorado at Colorado Springs"
    }
  },
  {
    "type": "Feature",
    "geometry": {
       "type": "Point",
       "coordinates":  [ -77.0485992,38.8997145 ]
    },
    "properties": {
    "NAME":"George Washington University"
    }
  },
  {
    "type": "Feature",
    "geometry": {
       "type": "Point",
       "coordinates":  [ -77.1277618,38.905351 ]
    },
    "properties": {
    "NAME":"Marymount University"
    }
  },
  {
    "type": "Feature",
    "geometry": {
       "type": "Point",
       "coordinates":  [ -77.0722585,38.9076089 ]
    },
    "properties": {
    "NAME":"Georgetown University"
    }
  },
  {
    "type": "Feature",
    "geometry": {
       "type": "Point",
       "coordinates":  [ -77.0194377,38.9226843 ]
    },
    "properties": {
    "NAME":"Howard University"
    }
  },
  {
    "type": "Feature",
    "geometry": {
       "type": "Point",
       "coordinates":  [ -77.0056073,38.9273457 ]
    },
    "properties": {
    "NAME":"Trinity Washington University"
    }
  },
  {
    "type": "Feature",
    "geometry": {
       "type": "Point",
       "coordinates":  [ -76.998692,38.9368811 ]
    },
    "properties": {
    "NAME":"Catholic University of America"
    }
  },
  {
    "type": "Feature",
    "geometry": {
       "type": "Point",
       "coordinates":  [ -77.0873929,38.9392688 ]
    },
    "properties": {
    "NAME":"American University"
    }
  },
  {
    "type": "Feature",
    "geometry": {
       "type": "Point",
       "coordinates":  [ -92.3277375,38.9403808 ]
    },
    "properties": {
    "NAME":"University of Missouri-Columbia"
    }
  },
  {
    "type": "Feature",
    "geometry": {
       "type": "Point",
       "coordinates":  [ -90.3484633,38.9488338 ]
    },
    "properties": {
    "NAME":"Principia College"
    }
  },
  {
    "type": "Feature",
    "geometry": {
       "type": "Point",
       "coordinates":  [ -95.2557961,38.9543439 ]
    },
    "properties": {
    "NAME":"University of Kansas"
    }
  },
  {
    "type": "Feature",
    "geometry": {
       "type": "Point",
       "coordinates":  [ -76.4839405,38.9820658 ]
    },
    "properties": {
    "NAME":"United States Naval Academy"
    }
  },
  {
    "type": "Feature",
    "geometry": {
       "type": "Point",
       "coordinates":  [ -76.9425543,38.9869183 ]
    },
    "properties": {
    "NAME":"University of Maryland College Park"
    }
  },
  {
    "type": "Feature",
    "geometry": {
       "type": "Point",
       "coordinates":  [ -80.2196586,38.990005 ]
    },
    "properties": {
    "NAME":"West Virginia Wesleyan University"
    }
  },
  {
    "type": "Feature",
    "geometry": {
       "type": "Point",
       "coordinates":  [ -94.5715545,39.0309267 ]
    },
    "properties": {
    "NAME":"Rockhurst University"
    }
  },
  {
    "type": "Feature",
    "geometry": {
       "type": "Point",
       "coordinates":  [ -95.7017075,39.0333113 ]
    },
    "properties": {
    "NAME":"Washburn University"
    }
  },
  {
    "type": "Feature",
    "geometry": {
       "type": "Point",
       "coordinates":  [ -94.5760259,39.0335539 ]
    },
    "properties": {
    "NAME":"University of Missouri-Kansas City"
    }
  },
  {
    "type": "Feature",
    "geometry": {
       "type": "Point",
       "coordinates":  [ -77.1577352,39.0973684 ]
    },
    "properties": {
    "NAME":"Montgomery College"
    }
  },
  {
    "type": "Feature",
    "geometry": {
       "type": "Point",
       "coordinates":  [ -84.5149504,39.1329219 ]
    },
    "properties": {
    "NAME":"University of Cincinnati"
    }
  },
  {
    "type": "Feature",
    "geometry": {
       "type": "Point",
       "coordinates":  [ -84.4745119,39.1493644 ]
    },
    "properties": {
    "NAME":"Xavier University-OH"
    }
  },
  {
    "type": "Feature",
    "geometry": {
       "type": "Point",
       "coordinates":  [ -86.5129458,39.1745704 ]
    },
    "properties": {
    "NAME":"Indiana University Bloomington"
    }
  },
  {
    "type": "Feature",
    "geometry": {
       "type": "Point",
       "coordinates":  [ -94.6772599,39.1908218 ]
    },
    "properties": {
    "NAME":"Park University"
    }
  },
  {
    "type": "Feature",
    "geometry": {
       "type": "Point",
       "coordinates":  [ -76.7109751,39.2556129 ]
    },
    "properties": {
    "NAME":"University of Maryland Baltimore County"
    }
  },
  {
    "type": "Feature",
    "geometry": {
       "type": "Point",
       "coordinates":  [ -76.6216339,39.307555 ]
    },
    "properties": {
    "NAME":"Maryland Institute College of Art"
    }
  },
  {
    "type": "Feature",
    "geometry": {
       "type": "Point",
       "coordinates":  [ -82.1013889,39.324358 ]
    },
    "properties": {
    "NAME":"Ohio University"
    }
  },
  {
    "type": "Feature",
    "geometry": {
       "type": "Point",
       "coordinates":  [ -76.6205177,39.3299013 ]
    },
    "properties": {
    "NAME":"Johns Hopkins University"
    }
  },
  {
    "type": "Feature",
    "geometry": {
       "type": "Point",
       "coordinates":  [ -76.5843847,39.3437959 ]
    },
    "properties": {
    "NAME":"Morgan State University"
    }
  },
  {
    "type": "Feature",
    "geometry": {
       "type": "Point",
       "coordinates":  [ -84.5630121,39.377788 ]
    },
    "properties": {
    "NAME":"Miami University: Hamilton Campus"
    }
  },
  {
    "type": "Feature",
    "geometry": {
       "type": "Point",
       "coordinates":  [ -76.6126392,39.3925121 ]
    },
    "properties": {
    "NAME":"Towson University"
    }
  },
  {
    "type": "Feature",
    "geometry": {
       "type": "Point",
       "coordinates":  [ -76.596545,39.408765 ]
    },
    "properties": {
    "NAME":"Goucher College"
    }
  },
  {
    "type": "Feature",
    "geometry": {
       "type": "Point",
       "coordinates":  [ -81.4491067,39.4145456 ]
    },
    "properties": {
    "NAME":"Marietta College"
    }
  },
  {
    "type": "Feature",
    "geometry": {
       "type": "Point",
       "coordinates":  [ -84.7308768,39.5105334 ]
    },
    "properties": {
    "NAME":"Miami University of Ohio"
    }
  },
  {
    "type": "Feature",
    "geometry": {
       "type": "Point",
       "coordinates":  [ -119.816397,39.5441917 ]
    },
    "properties": {
    "NAME":"University of Nevada, Reno"
    }
  },
  {
    "type": "Feature",
    "geometry": {
       "type": "Point",
       "coordinates":  [ -95.1113744,39.5731522 ]
    },
    "properties": {
    "NAME":"Benedictine College"
    }
  },
  {
    "type": "Feature",
    "geometry": {
       "type": "Point",
       "coordinates":  [ -77.0037192,39.5829905 ]
    },
    "properties": {
    "NAME":"McDaniel College"
    }
  },
  {
    "type": "Feature",
    "geometry": {
       "type": "Point",
       "coordinates":  [ -79.9559358,39.6361396 ]
    },
    "properties": {
    "NAME":"West Virginia University"
    }
  },
  {
    "type": "Feature",
    "geometry": {
       "type": "Point",
       "coordinates":  [ -86.8628946,39.6393943 ]
    },
    "properties": {
    "NAME":"DePauw University"
    }
  },
  {
    "type": "Feature",
    "geometry": {
       "type": "Point",
       "coordinates":  [ -104.9618965,39.6766174 ]
    },
    "properties": {
    "NAME":"University of Denver"
    }
  },
  {
    "type": "Feature",
    "geometry": {
       "type": "Point",
       "coordinates":  [ -75.7506114,39.6779504 ]
    },
    "properties": {
    "NAME":"University of Delaware"
    }
  },
  {
    "type": "Feature",
    "geometry": {
       "type": "Point",
       "coordinates":  [ -83.878929,39.710638 ]
    },
    "properties": {
    "NAME":"Wilberforce University"
    }
  },
  {
    "type": "Feature",
    "geometry": {
       "type": "Point",
       "coordinates":  [ -121.8473287,39.729575 ]
    },
    "properties": {
    "NAME":"California State University Chico"
    }
  },
  {
    "type": "Feature",
    "geometry": {
       "type": "Point",
       "coordinates":  [ -90.24675,39.730211 ]
    },
    "properties": {
    "NAME":"Illinois College"
    }
  },
  {
    "type": "Feature",
    "geometry": {
       "type": "Point",
       "coordinates":  [ -84.1799675,39.7393 ]
    },
    "properties": {
    "NAME":"University of Dayton"
    }
  },
  {
    "type": "Feature",
    "geometry": {
       "type": "Point",
       "coordinates":  [ -105.0062192,39.7431133 ]
    },
    "properties": {
    "NAME":"Metropolitan State University of Denver"
    }
  },
  {
    "type": "Feature",
    "geometry": {
       "type": "Point",
       "coordinates":  [ -105.069955,39.743334 ]
    },
    "properties": {
    "NAME":"Rocky Mountain College of Art + Design"
    }
  },
  {
    "type": "Feature",
    "geometry": {
       "type": "Point",
       "coordinates":  [ -105.0023325,39.7463895 ]
    },
    "properties": {
    "NAME":"University of Colorado at Denver"
    }
  },
  {
    "type": "Feature",
    "geometry": {
       "type": "Point",
       "coordinates":  [ -86.1763393,39.7738832 ]
    },
    "properties": {
    "NAME":"Indiana University-Purdue University Indianapolis"
    }
  },
  {
    "type": "Feature",
    "geometry": {
       "type": "Point",
       "coordinates":  [ -105.0298065,39.7893676 ]
    },
    "properties": {
    "NAME":"Regis University"
    }
  },
  {
    "type": "Feature",
    "geometry": {
       "type": "Point",
       "coordinates":  [ -75.9273377,39.807212 ]
    },
    "properties": {
    "NAME":"Lincoln University-Pennsylvania"
    }
  },
  {
    "type": "Feature",
    "geometry": {
       "type": "Point",
       "coordinates":  [ -84.913052,39.8208853 ]
    },
    "properties": {
    "NAME":"Earlham College"
    }
  },
  {
    "type": "Feature",
    "geometry": {
       "type": "Point",
       "coordinates":  [ -77.2375078,39.8362073 ]
    },
    "properties": {
    "NAME":"Gettysburg College"
    }
  },
  {
    "type": "Feature",
    "geometry": {
       "type": "Point",
       "coordinates":  [ -86.1711908,39.8411235 ]
    },
    "properties": {
    "NAME":"Butler University"
    }
  },
  {
    "type": "Feature",
    "geometry": {
       "type": "Point",
       "coordinates":  [ -80.1866266,39.8992112 ]
    },
    "properties": {
    "NAME":"Waynesburg University"
    }
  },
  {
    "type": "Feature",
    "geometry": {
       "type": "Point",
       "coordinates":  [ -75.3556483,39.9068405 ]
    },
    "properties": {
    "NAME":"Swarthmore College"
    }
  },
  {
    "type": "Feature",
    "geometry": {
       "type": "Point",
       "coordinates":  [ -83.8139029,39.9365496 ]
    },
    "properties": {
    "NAME":"Wittenberg University"
    }
  },
  {
    "type": "Feature",
    "geometry": {
       "type": "Point",
       "coordinates":  [ -77.6493492,39.9491899 ]
    },
    "properties": {
    "NAME":"Wilson College"
    }
  },
  {
    "type": "Feature",
    "geometry": {
       "type": "Point",
       "coordinates":  [ -75.1932137,39.9522188 ]
    },
    "properties": {
    "NAME":"University of Pennsylvania"
    }
  },
  {
    "type": "Feature",
    "geometry": {
       "type": "Point",
       "coordinates":  [ -82.938559,39.9549246 ]
    },
    "properties": {
    "NAME":"Capital University"
    }
  },
  {
    "type": "Feature",
    "geometry": {
       "type": "Point",
       "coordinates":  [ -75.1899441,39.9566127 ]
    },
    "properties": {
    "NAME":"Drexel University"
    }
  },
  {
    "type": "Feature",
    "geometry": {
       "type": "Point",
       "coordinates":  [ -75.1720136,39.9569015 ]
    },
    "properties": {
    "NAME":"Moore College of Art & Design"
    }
  },
  {
    "type": "Feature",
    "geometry": {
       "type": "Point",
       "coordinates":  [ -75.1553512,39.9811935 ]
    },
    "properties": {
    "NAME":"Temple University"
    }
  },
  {
    "type": "Feature",
    "geometry": {
       "type": "Point",
       "coordinates":  [ -76.3544283,39.9976889 ]
    },
    "properties": {
    "NAME":"Millersville University"
    }
  },
  {
    "type": "Feature",
    "geometry": {
       "type": "Point",
       "coordinates":  [ -105.2659417,40.007581 ]
    },
    "properties": {
    "NAME":"University of Colorado at Boulder"
    }
  },
  {
    "type": "Feature",
    "geometry": {
       "type": "Point",
       "coordinates":  [ -75.305656,40.0093478 ]
    },
    "properties": {
    "NAME":"Haverford College"
    }
  },
  {
    "type": "Feature",
    "geometry": {
       "type": "Point",
       "coordinates":  [ -105.2673905,40.0141679 ]
    },
    "properties": {
    "NAME":"Naropa University"
    }
  },
  {
    "type": "Feature",
    "geometry": {
       "type": "Point",
       "coordinates":  [ -83.0309143,40.0141905 ]
    },
    "properties": {
    "NAME":"Ohio State University"
    }
  },
  {
    "type": "Feature",
    "geometry": {
       "type": "Point",
       "coordinates":  [ -75.1922881,40.0187208 ]
    },
    "properties": {
    "NAME":"Philadelphia University"
    }
  },
  {
    "type": "Feature",
    "geometry": {
       "type": "Point",
       "coordinates":  [ -75.3152341,40.0281065 ]
    },
    "properties": {
    "NAME":"Bryn Mawr College"
    }
  },
  {
    "type": "Feature",
    "geometry": {
       "type": "Point",
       "coordinates":  [ -75.34358,40.037056 ]
    },
    "properties": {
    "NAME":"Villanova University"
    }
  },
  {
    "type": "Feature",
    "geometry": {
       "type": "Point",
       "coordinates":  [ -86.9066552,40.0378111 ]
    },
    "properties": {
    "NAME":"Wabash College"
    }
  },
  {
    "type": "Feature",
    "geometry": {
       "type": "Point",
       "coordinates":  [ -76.3197819,40.0484514 ]
    },
    "properties": {
    "NAME":"Franklin & Marshall College"
    }
  },
  {
    "type": "Feature",
    "geometry": {
       "type": "Point",
       "coordinates":  [ -82.5223309,40.0734583 ]
    },
    "properties": {
    "NAME":"Denison University"
    }
  },
  {
    "type": "Feature",
    "geometry": {
       "type": "Point",
       "coordinates":  [ -75.1648845,40.0914406 ]
    },
    "properties": {
    "NAME":"Arcadia University"
    }
  },
  {
    "type": "Feature",
    "geometry": {
       "type": "Point",
       "coordinates":  [ -82.9371852,40.1268746 ]
    },
    "properties": {
    "NAME":"Otterbein University"
    }
  },
  {
    "type": "Feature",
    "geometry": {
       "type": "Point",
       "coordinates":  [ -76.589792,40.1503251 ]
    },
    "properties": {
    "NAME":"Elizabethtown College"
    }
  },
  {
    "type": "Feature",
    "geometry": {
       "type": "Point",
       "coordinates":  [ -80.238725,40.170436 ]
    },
    "properties": {
    "NAME":"Washington & Jefferson College"
    }
  },
  {
    "type": "Feature",
    "geometry": {
       "type": "Point",
       "coordinates":  [ -75.4558588,40.1915099 ]
    },
    "properties": {
    "NAME":"Ursinus College"
    }
  },
  {
    "type": "Feature",
    "geometry": {
       "type": "Point",
       "coordinates":  [ -77.197232,40.2027214 ]
    },
    "properties": {
    "NAME":"Dickinson College"
    }
  },
  {
    "type": "Feature",
    "geometry": {
       "type": "Point",
       "coordinates":  [ -74.7778624,40.2683078 ]
    },
    "properties": {
    "NAME":"College of New Jersey"
    }
  },
  {
    "type": "Feature",
    "geometry": {
       "type": "Point",
       "coordinates":  [ -74.738187,40.279623 ]
    },
    "properties": {
    "NAME":"Rider University"
    }
  },
  {
    "type": "Feature",
    "geometry": {
       "type": "Point",
       "coordinates":  [ -83.0693059,40.2964786 ]
    },
    "properties": {
    "NAME":"Ohio Wesleyan University"
    }
  },
  {
    "type": "Feature",
    "geometry": {
       "type": "Point",
       "coordinates":  [ -74.6514481,40.3439888 ]
    },
    "properties": {
    "NAME":"Princeton University"
    }
  },
  {
    "type": "Feature",
    "geometry": {
       "type": "Point",
       "coordinates":  [ -75.910629,40.3615027 ]
    },
    "properties": {
    "NAME":"Albright College"
    }
  },
  {
    "type": "Feature",
    "geometry": {
       "type": "Point",
       "coordinates":  [ -82.3983079,40.3718965 ]
    },
    "properties": {
    "NAME":"Kenyon College"
    }
  },
  {
    "type": "Feature",
    "geometry": {
       "type": "Point",
       "coordinates":  [ -104.6961077,40.4055236 ]
    },
    "properties": {
    "NAME":"University of Northern Colorado"
    }
  },
  {
    "type": "Feature",
    "geometry": {
       "type": "Point",
       "coordinates":  [ -86.9211946,40.4237054 ]
    },
    "properties": {
    "NAME":"Purdue University"
    }
  },
  {
    "type": "Feature",
    "geometry": {
       "type": "Point",
       "coordinates":  [ -79.9901728,40.4372949 ]
    },
    "properties": {
    "NAME":"Duquesne University"
    }
  },
  {
    "type": "Feature",
    "geometry": {
       "type": "Point",
       "coordinates":  [ -79.9430128,40.4428081 ]
    },
    "properties": {
    "NAME":"Carnegie Mellon University"
    }
  },
  {
    "type": "Feature",
    "geometry": {
       "type": "Point",
       "coordinates":  [ -79.960835,40.4443533 ]
    },
    "properties": {
    "NAME":"University of Pittsburgh"
    }
  },
  {
    "type": "Feature",
    "geometry": {
       "type": "Point",
       "coordinates":  [ -79.9242625,40.4482193 ]
    },
    "properties": {
    "NAME":"Chatham University"
    }
  },
  {
    "type": "Feature",
    "geometry": {
       "type": "Point",
       "coordinates":  [ -90.685397,40.4726649 ]
    },
    "properties": {
    "NAME":"Western Illinois University"
    }
  },
  {
    "type": "Feature",
    "geometry": {
       "type": "Point",
       "coordinates":  [ -88.9906541,40.4908892 ]
    },
    "properties": {
    "NAME":"Illinois Wesleyan University"
    }
  },
  {
    "type": "Feature",
    "geometry": {
       "type": "Point",
       "coordinates":  [ -78.0158977,40.5001396 ]
    },
    "properties": {
    "NAME":"Juniata College"
    }
  },
  {
    "type": "Feature",
    "geometry": {
       "type": "Point",
       "coordinates":  [ -74.4473991,40.5008186 ]
    },
    "properties": {
    "NAME":"Rutgers University-New Brunswick"
    }
  },
  {
    "type": "Feature",
    "geometry": {
       "type": "Point",
       "coordinates":  [ -88.9946702,40.5122833 ]
    },
    "properties": {
    "NAME":"Illinois State University"
    }
  },
  {
    "type": "Feature",
    "geometry": {
       "type": "Point",
       "coordinates":  [ -105.0865473,40.573436 ]
    },
    "properties": {
    "NAME":"Colorado State University"
    }
  },
  {
    "type": "Feature",
    "geometry": {
       "type": "Point",
       "coordinates":  [ -75.5101316,40.597544 ]
    },
    "properties": {
    "NAME":"Muhlenberg College"
    }
  },
  {
    "type": "Feature",
    "geometry": {
       "type": "Point",
       "coordinates":  [ -75.3782832,40.6069087 ]
    },
    "properties": {
    "NAME":"Lehigh University"
    }
  },
  {
    "type": "Feature",
    "geometry": {
       "type": "Point",
       "coordinates":  [ -75.3812135,40.6308814 ]
    },
    "properties": {
    "NAME":"Moravian College"
    }
  },
  {
    "type": "Feature",
    "geometry": {
       "type": "Point",
       "coordinates":  [ -73.9544488,40.6314406 ]
    },
    "properties": {
    "NAME":"Brooklyn College"
    }
  },
  {
    "type": "Feature",
    "geometry": {
       "type": "Point",
       "coordinates":  [ -73.9805083,40.6908489 ]
    },
    "properties": {
    "NAME":"Long Island University Global"
    }
  },
  {
    "type": "Feature",
    "geometry": {
       "type": "Point",
       "coordinates":  [ -75.2087298,40.6986202 ]
    },
    "properties": {
    "NAME":"Lafayette College"
    }
  },
  {
    "type": "Feature",
    "geometry": {
       "type": "Point",
       "coordinates":  [ -74.0048567,40.7111197 ]
    },
    "properties": {
    "NAME":"Pace University"
    }
  },
  {
    "type": "Feature",
    "geometry": {
       "type": "Point",
       "coordinates":  [ -73.5994041,40.716792 ]
    },
    "properties": {
    "NAME":"Hofstra University"
    }
  },
  {
    "type": "Feature",
    "geometry": {
       "type": "Point",
       "coordinates":  [ -74.0118777,40.7187801 ]
    },
    "properties": {
    "NAME":"CUNY: Borough Manhattan Community College"
    }
  },
  {
    "type": "Feature",
    "geometry": {
       "type": "Point",
       "coordinates":  [ -73.6517101,40.7197286 ]
    },
    "properties": {
    "NAME":"Adelphi University"
    }
  },
  {
    "type": "Feature",
    "geometry": {
       "type": "Point",
       "coordinates":  [ -73.9964609,40.7295134 ]
    },
    "properties": {
    "NAME":"New York University"
    }
  },
  {
    "type": "Feature",
    "geometry": {
       "type": "Point",
       "coordinates":  [ -111.8551883,40.7315104 ]
    },
    "properties": {
    "NAME":"Westminster College-UT"
    }
  },
  {
    "type": "Feature",
    "geometry": {
       "type": "Point",
       "coordinates":  [ -73.994297,40.735547 ]
    },
    "properties": {
    "NAME":"New School University"
    }
  },
  {
    "type": "Feature",
    "geometry": {
       "type": "Point",
       "coordinates":  [ -73.8172393,40.7379735 ]
    },
    "properties": {
    "NAME":"Queens College of New York"
    }
  },
  {
    "type": "Feature",
    "geometry": {
       "type": "Point",
       "coordinates":  [ -73.982227,40.738754 ]
    },
    "properties": {
    "NAME":"School of Visual Arts"
    }
  },
  {
    "type": "Feature",
    "geometry": {
       "type": "Point",
       "coordinates":  [ -73.9833745,40.7401991 ]
    },
    "properties": {
    "NAME":"CUNY Baruch College"
    }
  },
  {
    "type": "Feature",
    "geometry": {
       "type": "Point",
       "coordinates":  [ -74.2471001,40.743011 ]
    },
    "properties": {
    "NAME":"Seton Hall University"
    }
  },
  {
    "type": "Feature",
    "geometry": {
       "type": "Point",
       "coordinates":  [ -73.9759022,40.7526842 ]
    },
    "properties": {
    "NAME":"Franklin University Switzerland"
    }
  },
  {
    "type": "Feature",
    "geometry": {
       "type": "Point",
       "coordinates":  [ -74.4269765,40.760567 ]
    },
    "properties": {
    "NAME":"Drew University"
    }
  },
  {
    "type": "Feature",
    "geometry": {
       "type": "Point",
       "coordinates":  [ -111.8421021,40.7649368 ]
    },
    "properties": {
    "NAME":"University of Utah"
    }
  },
  {
    "type": "Feature",
    "geometry": {
       "type": "Point",
       "coordinates":  [ -73.9646251,40.7685406 ]
    },
    "properties": {
    "NAME":"Hunter College"
    }
  },
  {
    "type": "Feature",
    "geometry": {
       "type": "Point",
       "coordinates":  [ -73.9597198,40.7687419 ]
    },
    "properties": {
    "NAME":"Marymount Manhattan College"
    }
  },
  {
    "type": "Feature",
    "geometry": {
       "type": "Point",
       "coordinates":  [ -76.8744803,40.7973267 ]
    },
    "properties": {
    "NAME":"Susquehanna University"
    }
  },
  {
    "type": "Feature",
    "geometry": {
       "type": "Point",
       "coordinates":  [ -77.8599084,40.7982133 ]
    },
    "properties": {
    "NAME":"Pennsylvania State University"
    }
  },
  {
    "type": "Feature",
    "geometry": {
       "type": "Point",
       "coordinates":  [ -73.9625727,40.8075355 ]
    },
    "properties": {
    "NAME":"Columbia University"
    }
  },
  {
    "type": "Feature",
    "geometry": {
       "type": "Point",
       "coordinates":  [ -73.9639632,40.8090974 ]
    },
    "properties": {
    "NAME":"Barnard College"
    }
  },
  {
    "type": "Feature",
    "geometry": {
       "type": "Point",
       "coordinates":  [ -81.9372838,40.8114268 ]
    },
    "properties": {
    "NAME":"College of Wooster"
    }
  },
  {
    "type": "Feature",
    "geometry": {
       "type": "Point",
       "coordinates":  [ -73.5900738,40.8172349 ]
    },
    "properties": {
    "NAME":"Long Island University-Post"
    }
  },
  {
    "type": "Feature",
    "geometry": {
       "type": "Point",
       "coordinates":  [ -73.9492724,40.8200471 ]
    },
    "properties": {
    "NAME":"City College of New York"
    }
  },
  {
    "type": "Feature",
    "geometry": {
       "type": "Point",
       "coordinates":  [ -96.7004763,40.8201966 ]
    },
    "properties": {
    "NAME":"University of Nebraska-Lincoln"
    }
  },
  {
    "type": "Feature",
    "geometry": {
       "type": "Point",
       "coordinates":  [ -96.6534974,40.8395997 ]
    },
    "properties": {
    "NAME":"Nebraska Wesleyan University"
    }
  },
  {
    "type": "Feature",
    "geometry": {
       "type": "Point",
       "coordinates":  [ -73.8856987,40.8620404 ]
    },
    "properties": {
    "NAME":"Fordham University"
    }
  },
  {
    "type": "Feature",
    "geometry": {
       "type": "Point",
       "coordinates":  [ -74.1985597,40.8644792 ]
    },
    "properties": {
    "NAME":"Montclair State University"
    }
  },
  {
    "type": "Feature",
    "geometry": {
       "type": "Point",
       "coordinates":  [ -124.077821,40.8752748 ]
    },
    "properties": {
    "NAME":"Humboldt State University"
    }
  },
  {
    "type": "Feature",
    "geometry": {
       "type": "Point",
       "coordinates":  [ -73.1233889,40.9123761 ]
    },
    "properties": {
    "NAME":"Stony Brook University"
    }
  },
  {
    "type": "Feature",
    "geometry": {
       "type": "Point",
       "coordinates":  [ -73.7864435,40.9271278 ]
    },
    "properties": {
    "NAME":"Iona College"
    }
  },
  {
    "type": "Feature",
    "geometry": {
       "type": "Point",
       "coordinates":  [ -73.8433974,40.9360524 ]
    },
    "properties": {
    "NAME":"Sarah Lawrence College"
    }
  },
  {
    "type": "Feature",
    "geometry": {
       "type": "Point",
       "coordinates":  [ -90.3718673,40.9418892 ]
    },
    "properties": {
    "NAME":"Knox College"
    }
  },
  {
    "type": "Feature",
    "geometry": {
       "type": "Point",
       "coordinates":  [ -76.8835514,40.9546869 ]
    },
    "properties": {
    "NAME":"Bucknell University"
    }
  },
  {
    "type": "Feature",
    "geometry": {
       "type": "Point",
       "coordinates":  [ -85.759772,41.0114193 ]
    },
    "properties": {
    "NAME":"Manchester University"
    }
  },
  {
    "type": "Feature",
    "geometry": {
       "type": "Point",
       "coordinates":  [ -73.7126803,41.0304301 ]
    },
    "properties": {
    "NAME":"Manhattanville College"
    }
  },
  {
    "type": "Feature",
    "geometry": {
       "type": "Point",
       "coordinates":  [ -73.6977661,41.0466485 ]
    },
    "properties": {
    "NAME":"SUNY Purchase College"
    }
  },
  {
    "type": "Feature",
    "geometry": {
       "type": "Point",
       "coordinates":  [ -81.5113386,41.076655 ]
    },
    "properties": {
    "NAME":"University of Akron"
    }
  },
  {
    "type": "Feature",
    "geometry": {
       "type": "Point",
       "coordinates":  [ -74.1746234,41.0815079 ]
    },
    "properties": {
    "NAME":"Ramapo College of New Jersey"
    }
  },
  {
    "type": "Feature",
    "geometry": {
       "type": "Point",
       "coordinates":  [ -81.3414649,41.1490629 ]
    },
    "properties": {
    "NAME":"Kent State University"
    }
  },
  {
    "type": "Feature",
    "geometry": {
       "type": "Point",
       "coordinates":  [ -73.2573625,41.1587639 ]
    },
    "properties": {
    "NAME":"Fairfield University"
    }
  },
  {
    "type": "Feature",
    "geometry": {
       "type": "Point",
       "coordinates":  [ -96.0107049,41.2582497 ]
    },
    "properties": {
    "NAME":"University of Nebraska-Omaha"
    }
  },
  {
    "type": "Feature",
    "geometry": {
       "type": "Point",
       "coordinates":  [ -95.9471919,41.2653105 ]
    },
    "properties": {
    "NAME":"Creighton University"
    }
  },
  {
    "type": "Feature",
    "geometry": {
       "type": "Point",
       "coordinates":  [ -82.2236001,41.293483 ]
    },
    "properties": {
    "NAME":"Oberlin College"
    }
  },
  {
    "type": "Feature",
    "geometry": {
       "type": "Point",
       "coordinates":  [ -105.5665744,41.3148754 ]
    },
    "properties": {
    "NAME":"University of Wyoming"
    }
  },
  {
    "type": "Feature",
    "geometry": {
       "type": "Point",
       "coordinates":  [ -72.9223431,41.3163244 ]
    },
    "properties": {
    "NAME":"Yale University"
    }
  },
  {
    "type": "Feature",
    "geometry": {
       "type": "Point",
       "coordinates":  [ -72.1045869,41.3786877 ]
    },
    "properties": {
    "NAME":"Connecticut College"
    }
  },
  {
    "type": "Feature",
    "geometry": {
       "type": "Point",
       "coordinates":  [ -83.6300826,41.3797788 ]
    },
    "properties": {
    "NAME":"Bowling Green State University"
    }
  },
  {
    "type": "Feature",
    "geometry": {
       "type": "Point",
       "coordinates":  [ -80.383918,41.411974 ]
    },
    "properties": {
    "NAME":"Thiel College"
    }
  },
  {
    "type": "Feature",
    "geometry": {
       "type": "Point",
       "coordinates":  [ -87.042381,41.463273 ]
    },
    "properties": {
    "NAME":"Valparaiso University"
    }
  },
  {
    "type": "Feature",
    "geometry": {
       "type": "Point",
       "coordinates":  [ -71.3006438,41.4714527 ]
    },
    "properties": {
    "NAME":"Salve Regina University"
    }
  },
  {
    "type": "Feature",
    "geometry": {
       "type": "Point",
       "coordinates":  [ -71.5308537,41.4860647 ]
    },
    "properties": {
    "NAME":"University of Rhode Island"
    }
  },
  {
    "type": "Feature",
    "geometry": {
       "type": "Point",
       "coordinates":  [ -81.5293126,41.4905062 ]
    },
    "properties": {
    "NAME":"John Carroll University"
    }
  },
  {
    "type": "Feature",
    "geometry": {
       "type": "Point",
       "coordinates":  [ -81.6747185,41.5024973 ]
    },
    "properties": {
    "NAME":"Cleveland State University"
    }
  },
  {
    "type": "Feature",
    "geometry": {
       "type": "Point",
       "coordinates":  [ -81.6024146,41.5104317 ]
    },
    "properties": {
    "NAME":"Cleveland Institute of Art"
    }
  },
  {
    "type": "Feature",
    "geometry": {
       "type": "Point",
       "coordinates":  [ -72.6569041,41.5566104 ]
    },
    "properties": {
    "NAME":"Wesleyan University"
    }
  },
  {
    "type": "Feature",
    "geometry": {
       "type": "Point",
       "coordinates":  [ -93.6552984,41.6029128 ]
    },
    "properties": {
    "NAME":"Drake University"
    }
  },
  {
    "type": "Feature",
    "geometry": {
       "type": "Point",
       "coordinates":  [ -71.0061561,41.6292932 ]
    },
    "properties": {
    "NAME":"University of Massachusetts Dartmouth"
    }
  },
  {
    "type": "Feature",
    "geometry": {
       "type": "Point",
       "coordinates":  [ -80.1449493,41.649349 ]
    },
    "properties": {
    "NAME":"Allegheny College"
    }
  },
  {
    "type": "Feature",
    "geometry": {
       "type": "Point",
       "coordinates":  [ -91.5548998,41.6626963 ]
    },
    "properties": {
    "NAME":"University of Iowa"
    }
  },
  {
    "type": "Feature",
    "geometry": {
       "type": "Point",
       "coordinates":  [ -73.8957002,41.6867992 ]
    },
    "properties": {
    "NAME":"Vassar College"
    }
  },
  {
    "type": "Feature",
    "geometry": {
       "type": "Point",
       "coordinates":  [ -72.764167,41.693255 ]
    },
    "properties": {
    "NAME":"Central Connecticut State University"
    }
  },
  {
    "type": "Feature",
    "geometry": {
       "type": "Point",
       "coordinates":  [ -86.2353388,41.7055716 ]
    },
    "properties": {
    "NAME":"University of Notre Dame"
    }
  },
  {
    "type": "Feature",
    "geometry": {
       "type": "Point",
       "coordinates":  [ -87.7160311,41.7067521 ]
    },
    "properties": {
    "NAME":"Saint Xavier University"
    }
  },
  {
    "type": "Feature",
    "geometry": {
       "type": "Point",
       "coordinates":  [ -73.9341204,41.7224565 ]
    },
    "properties": {
    "NAME":"Marist College"
    }
  },
  {
    "type": "Feature",
    "geometry": {
       "type": "Point",
       "coordinates":  [ -74.0851655,41.7390054 ]
    },
    "properties": {
    "NAME":"SUNY New Paltz"
    }
  },
  {
    "type": "Feature",
    "geometry": {
       "type": "Point",
       "coordinates":  [ -111.8097425,41.745161 ]
    },
    "properties": {
    "NAME":"Utah State University"
    }
  },
  {
    "type": "Feature",
    "geometry": {
       "type": "Point",
       "coordinates":  [ -72.6903345,41.7479332 ]
    },
    "properties": {
    "NAME":"Trinity College, Hartford"
    }
  },
  {
    "type": "Feature",
    "geometry": {
       "type": "Point",
       "coordinates":  [ -92.7201302,41.7490571 ]
    },
    "properties": {
    "NAME":"Grinnell College"
    }
  },
  {
    "type": "Feature",
    "geometry": {
       "type": "Point",
       "coordinates":  [ -87.5987133,41.7886079 ]
    },
    "properties": {
    "NAME":"University of Chicago"
    }
  },
  {
    "type": "Feature",
    "geometry": {
       "type": "Point",
       "coordinates":  [ -72.7140002,41.7985989 ]
    },
    "properties": {
    "NAME":"University of Hartford"
    }
  },
  {
    "type": "Feature",
    "geometry": {
       "type": "Point",
       "coordinates":  [ -72.2539805,41.8077414 ]
    },
    "properties": {
    "NAME":"University of Connecticut"
    }
  },
  {
    "type": "Feature",
    "geometry": {
       "type": "Point",
       "coordinates":  [ -71.407492,41.826111 ]
    },
    "properties": {
    "NAME":"Rhode Island School of Design"
    }
  },
  {
    "type": "Feature",
    "geometry": {
       "type": "Point",
       "coordinates":  [ -71.4025482,41.8267718 ]
    },
    "properties": {
    "NAME":"Brown University"
    }
  },
  {
    "type": "Feature",
    "geometry": {
       "type": "Point",
       "coordinates":  [ -87.6270059,41.8348731 ]
    },
    "properties": {
    "NAME":"Illinois Institute of Technology"
    }
  },
  {
    "type": "Feature",
    "geometry": {
       "type": "Point",
       "coordinates":  [ -71.461204,41.842207 ]
    },
    "properties": {
    "NAME":"Rhode Island College"
    }
  },
  {
    "type": "Feature",
    "geometry": {
       "type": "Point",
       "coordinates":  [ -71.4381653,41.8440925 ]
    },
    "properties": {
    "NAME":"Providence College"
    }
  },
  {
    "type": "Feature",
    "geometry": {
       "type": "Point",
       "coordinates":  [ -74.128999,41.851499 ]
    },
    "properties": {
    "NAME":"Ulster County Community College"
    }
  },
  {
    "type": "Feature",
    "geometry": {
       "type": "Point",
       "coordinates":  [ -88.099622,41.86833 ]
    },
    "properties": {
    "NAME":"Wheaton College-IL"
    }
  },
  {
    "type": "Feature",
    "geometry": {
       "type": "Point",
       "coordinates":  [ -87.6474502,41.8693039 ]
    },
    "properties": {
    "NAME":"University of Illinois at Chicago"
    }
  },
  {
    "type": "Feature",
    "geometry": {
       "type": "Point",
       "coordinates":  [ -87.6248338,41.8742477 ]
    },
    "properties": {
    "NAME":"Columbia College Chicago"
    }
  },
  {
    "type": "Feature",
    "geometry": {
       "type": "Point",
       "coordinates":  [ -87.6251169,41.8763427 ]
    },
    "properties": {
    "NAME":"Roosevelt University"
    }
  },
  {
    "type": "Feature",
    "geometry": {
       "type": "Point",
       "coordinates":  [ -87.627227,41.877512 ]
    },
    "properties": {
    "NAME":"DePaul University"
    }
  },
  {
    "type": "Feature",
    "geometry": {
       "type": "Point",
       "coordinates":  [ -87.6237133,41.8795845 ]
    },
    "properties": {
    "NAME":"School of the Art Institute of Chicago"
    }
  },
  {
    "type": "Feature",
    "geometry": {
       "type": "Point",
       "coordinates":  [ -87.945605,41.895871 ]
    },
    "properties": {
    "NAME":"Elmhurst College"
    }
  },
  {
    "type": "Feature",
    "geometry": {
       "type": "Point",
       "coordinates":  [ -91.4253502,41.9269546 ]
    },
    "properties": {
    "NAME":"Cornell College"
    }
  },
  {
    "type": "Feature",
    "geometry": {
       "type": "Point",
       "coordinates":  [ -88.774069,41.934233 ]
    },
    "properties": {
    "NAME":"Northern Illinois University"
    }
  },
  {
    "type": "Feature",
    "geometry": {
       "type": "Point",
       "coordinates":  [ -78.6729991,41.9440303 ]
    },
    "properties": {
    "NAME":"University of Pittsburgh at Bradford"
    }
  },
  {
    "type": "Feature",
    "geometry": {
       "type": "Point",
       "coordinates":  [ -71.1851943,41.9680101 ]
    },
    "properties": {
    "NAME":"Wheaton College-MA"
    }
  },
  {
    "type": "Feature",
    "geometry": {
       "type": "Point",
       "coordinates":  [ -87.7182002,41.9805024 ]
    },
    "properties": {
    "NAME":"Northeastern Illinois University"
    }
  },
  {
    "type": "Feature",
    "geometry": {
       "type": "Point",
       "coordinates":  [ -91.6591287,41.9884283 ]
    },
    "properties": {
    "NAME":"Coe College"
    }
  },
  {
    "type": "Feature",
    "geometry": {
       "type": "Point",
       "coordinates":  [ -87.6581921,41.998997 ]
    },
    "properties": {
    "NAME":"Loyola University Chicago"
    }
  },
  {
    "type": "Feature",
    "geometry": {
       "type": "Point",
       "coordinates":  [ -73.9100544,42.0203897 ]
    },
    "properties": {
    "NAME":"Bard College"
    }
  },
  {
    "type": "Feature",
    "geometry": {
       "type": "Point",
       "coordinates":  [ -93.6464654,42.0266187 ]
    },
    "properties": {
    "NAME":"Iowa State University"
    }
  },
  {
    "type": "Feature",
    "geometry": {
       "type": "Point",
       "coordinates":  [ -87.675267,42.0564594 ]
    },
    "properties": {
    "NAME":"Northwestern University"
    }
  },
  {
    "type": "Feature",
    "geometry": {
       "type": "Point",
       "coordinates":  [ -71.0806276,42.0590153 ]
    },
    "properties": {
    "NAME":"Stonehill College"
    }
  },
  {
    "type": "Feature",
    "geometry": {
       "type": "Point",
       "coordinates":  [ -71.3983948,42.085449 ]
    },
    "properties": {
    "NAME":"Dean College"
    }
  },
  {
    "type": "Feature",
    "geometry": {
       "type": "Point",
       "coordinates":  [ -75.9697049,42.0893553 ]
    },
    "properties": {
    "NAME":"Binghamton University"
    }
  },
  {
    "type": "Feature",
    "geometry": {
       "type": "Point",
       "coordinates":  [ -122.6959071,42.1859996 ]
    },
    "properties": {
    "NAME":"Southern Oregon University"
    }
  },
  {
    "type": "Feature",
    "geometry": {
       "type": "Point",
       "coordinates":  [ -73.379043,42.207738 ]
    },
    "properties": {
    "NAME":"Bard College at Simon's Rock"
    }
  },
  {
    "type": "Feature",
    "geometry": {
       "type": "Point",
       "coordinates":  [ -71.8079608,42.2392391 ]
    },
    "properties": {
    "NAME":"College of the Holy Cross"
    }
  },
  {
    "type": "Feature",
    "geometry": {
       "type": "Point",
       "coordinates":  [ -84.7451775,42.2440064 ]
    },
    "properties": {
    "NAME":"Albion College"
    }
  },
  {
    "type": "Feature",
    "geometry": {
       "type": "Point",
       "coordinates":  [ -87.828913,42.249058 ]
    },
    "properties": {
    "NAME":"Lake Forest College"
    }
  },
  {
    "type": "Feature",
    "geometry": {
       "type": "Point",
       "coordinates":  [ -71.8246703,42.2523452 ]
    },
    "properties": {
    "NAME":"Clark University"
    }
  },
  {
    "type": "Feature",
    "geometry": {
       "type": "Point",
       "coordinates":  [ -72.5761394,42.2532535 ]
    },
    "properties": {
    "NAME":"Mount Holyoke College"
    }
  },
  {
    "type": "Feature",
    "geometry": {
       "type": "Point",
       "coordinates":  [ -77.786103,42.2558218 ]
    },
    "properties": {
    "NAME":"Alfred University"
    }
  },
  {
    "type": "Feature",
    "geometry": {
       "type": "Point",
       "coordinates":  [ -71.8441349,42.2679717 ]
    },
    "properties": {
    "NAME":"Worcester State University"
    }
  },
  {
    "type": "Feature",
    "geometry": {
       "type": "Point",
       "coordinates":  [ -83.7382241,42.2780436 ]
    },
    "properties": {
    "NAME":"University of Michigan-Ann Arbor"
    }
  },
  {
    "type": "Feature",
    "geometry": {
       "type": "Point",
       "coordinates":  [ -85.6102507,42.2837336 ]
    },
    "properties": {
    "NAME":"Western Michigan University"
    }
  },
  {
    "type": "Feature",
    "geometry": {
       "type": "Point",
       "coordinates":  [ -71.2636653,42.2931671 ]
    },
    "properties": {
    "NAME":"Olin College of Engineering"
    }
  },
  {
    "type": "Feature",
    "geometry": {
       "type": "Point",
       "coordinates":  [ -71.3059277,42.2935733 ]
    },
    "properties": {
    "NAME":"Wellesley College"
    }
  },
  {
    "type": "Feature",
    "geometry": {
       "type": "Point",
       "coordinates":  [ -71.8289631,42.2947143 ]
    },
    "properties": {
    "NAME":"Assumption College"
    }
  },
  {
    "type": "Feature",
    "geometry": {
       "type": "Point",
       "coordinates":  [ -71.436075,42.2981072 ]
    },
    "properties": {
    "NAME":"Framingham State University"
    }
  },
  {
    "type": "Feature",
    "geometry": {
       "type": "Point",
       "coordinates":  [ -71.2659951,42.2993708 ]
    },
    "properties": {
    "NAME":"Babson College"
    }
  },
  {
    "type": "Feature",
    "geometry": {
       "type": "Point",
       "coordinates":  [ -71.0367377,42.3148413 ]
    },
    "properties": {
    "NAME":"University of Massachusetts Boston"
    }
  },
  {
    "type": "Feature",
    "geometry": {
       "type": "Point",
       "coordinates":  [ -72.6372341,42.3180957 ]
    },
    "properties": {
    "NAME":"Smith College"
    }
  },
  {
    "type": "Feature",
    "geometry": {
       "type": "Point",
       "coordinates":  [ -72.5322956,42.325559 ]
    },
    "properties": {
    "NAME":"Hampshire College"
    }
  },
  {
    "type": "Feature",
    "geometry": {
       "type": "Point",
       "coordinates":  [ -71.1684945,42.3355488 ]
    },
    "properties": {
    "NAME":"Boston College"
    }
  },
  {
    "type": "Feature",
    "geometry": {
       "type": "Point",
       "coordinates":  [ -71.0891717,42.3398067 ]
    },
    "properties": {
    "NAME":"Northeastern University"
    }
  },
  {
    "type": "Feature",
    "geometry": {
       "type": "Point",
       "coordinates":  [ -71.1022899,42.3410214 ]
    },
    "properties": {
    "NAME":"Emmanuel College"
    }
  },
  {
    "type": "Feature",
    "geometry": {
       "type": "Point",
       "coordinates":  [ -71.1053991,42.3504997 ]
    },
    "properties": {
    "NAME":"Boston University"
    }
  },
  {
    "type": "Feature",
    "geometry": {
       "type": "Point",
       "coordinates":  [ -71.06581,42.3522216 ]
    },
    "properties": {
    "NAME":"Emerson College"
    }
  },
  {
    "type": "Feature",
    "geometry": {
       "type": "Point",
       "coordinates":  [ -83.0665462,42.3591388 ]
    },
    "properties": {
    "NAME":"Wayne State University"
    }
  },
  {
    "type": "Feature",
    "geometry": {
       "type": "Point",
       "coordinates":  [ -71.09416,42.360091 ]
    },
    "properties": {
    "NAME":"Massachusetts Institute of Technology"
    }
  },
  {
    "type": "Feature",
    "geometry": {
       "type": "Point",
       "coordinates":  [ -71.258663,42.364989 ]
    },
    "properties": {
    "NAME":"Brandeis University"
    }
  },
  {
    "type": "Feature",
    "geometry": {
       "type": "Point",
       "coordinates":  [ -72.5170028,42.3709104 ]
    },
    "properties": {
    "NAME":"Amherst College"
    }
  },
  {
    "type": "Feature",
    "geometry": {
       "type": "Point",
       "coordinates":  [ -71.1166601,42.3770029 ]
    },
    "properties": {
    "NAME":"Harvard University"
    }
  },
  {
    "type": "Feature",
    "geometry": {
       "type": "Point",
       "coordinates":  [ -71.1177024,42.3811758 ]
    },
    "properties": {
    "NAME":"Lesley University"
    }
  },
  {
    "type": "Feature",
    "geometry": {
       "type": "Point",
       "coordinates":  [ -72.5267121,42.3911569 ]
    },
    "properties": {
    "NAME":"University of Massachusetts Amherst"
    }
  },
  {
    "type": "Feature",
    "geometry": {
       "type": "Point",
       "coordinates":  [ -71.1190232,42.4074843 ]
    },
    "properties": {
    "NAME":"Tufts University"
    }
  },
  {
    "type": "Feature",
    "geometry": {
       "type": "Point",
       "coordinates":  [ -76.498564,42.421658 ]
    },
    "properties": {
    "NAME":"Ithaca College"
    }
  },
  {
    "type": "Feature",
    "geometry": {
       "type": "Point",
       "coordinates":  [ -76.4735027,42.4534492 ]
    },
    "properties": {
    "NAME":"Cornell University"
    }
  },
  {
    "type": "Feature",
    "geometry": {
       "type": "Point",
       "coordinates":  [ -75.0728868,42.4573534 ]
    },
    "properties": {
    "NAME":"Hartwick College"
    }
  },
  {
    "type": "Feature",
    "geometry": {
       "type": "Point",
       "coordinates":  [ -75.0635578,42.4710197 ]
    },
    "properties": {
    "NAME":"SUNY Oneonta"
    }
  },
  {
    "type": "Feature",
    "geometry": {
       "type": "Point",
       "coordinates":  [ -89.0309048,42.5030333 ]
    },
    "properties": {
    "NAME":"Beloit College"
    }
  },
  {
    "type": "Feature",
    "geometry": {
       "type": "Point",
       "coordinates":  [ -90.6811197,42.5031076 ]
    },
    "properties": {
    "NAME":"Loras College"
    }
  },
  {
    "type": "Feature",
    "geometry": {
       "type": "Point",
       "coordinates":  [ -70.8408093,42.5531918 ]
    },
    "properties": {
    "NAME":"Endicott College"
    }
  },
  {
    "type": "Feature",
    "geometry": {
       "type": "Point",
       "coordinates":  [ -70.8209286,42.5893751 ]
    },
    "properties": {
    "NAME":"Gordon College"
    }
  },
  {
    "type": "Feature",
    "geometry": {
       "type": "Point",
       "coordinates":  [ -83.1671521,42.5969141 ]
    },
    "properties": {
    "NAME":"Central Michigan University"
    }
  },
  {
    "type": "Feature",
    "geometry": {
       "type": "Point",
       "coordinates":  [ -87.8198185,42.6238133 ]
    },
    "properties": {
    "NAME":"Carthage College"
    }
  },
  {
    "type": "Feature",
    "geometry": {
       "type": "Point",
       "coordinates":  [ -71.3240468,42.6500568 ]
    },
    "properties": {
    "NAME":"University of Massachusetts Lowell"
    }
  },
  {
    "type": "Feature",
    "geometry": {
       "type": "Point",
       "coordinates":  [ -73.8243474,42.6858882 ]
    },
    "properties": {
    "NAME":"University at Albany"
    }
  },
  {
    "type": "Feature",
    "geometry": {
       "type": "Point",
       "coordinates":  [ -84.4821719,42.701848 ]
    },
    "properties": {
    "NAME":"Michigan State University"
    }
  },
  {
    "type": "Feature",
    "geometry": {
       "type": "Point",
       "coordinates":  [ -73.2030214,42.7128038 ]
    },
    "properties": {
    "NAME":"Williams College"
    }
  },
  {
    "type": "Feature",
    "geometry": {
       "type": "Point",
       "coordinates":  [ -73.7521951,42.718452 ]
    },
    "properties": {
    "NAME":"Siena College"
    }
  },
  {
    "type": "Feature",
    "geometry": {
       "type": "Point",
       "coordinates":  [ -92.4821589,42.7285775 ]
    },
    "properties": {
    "NAME":"Wartburg College"
    }
  },
  {
    "type": "Feature",
    "geometry": {
       "type": "Point",
       "coordinates":  [ -73.678803,42.730172 ]
    },
    "properties": {
    "NAME":"Rensselaer Polytechnic Institute"
    }
  },
  {
    "type": "Feature",
    "geometry": {
       "type": "Point",
       "coordinates":  [ -86.1023574,42.7871797 ]
    },
    "properties": {
    "NAME":"Hope College"
    }
  },
  {
    "type": "Feature",
    "geometry": {
       "type": "Point",
       "coordinates":  [ -75.5401764,42.8166152 ]
    },
    "properties": {
    "NAME":"Colgate University"
    }
  },
  {
    "type": "Feature",
    "geometry": {
       "type": "Point",
       "coordinates":  [ -73.9298053,42.817017 ]
    },
    "properties": {
    "NAME":"Union College-NY"
    }
  },
  {
    "type": "Feature",
    "geometry": {
       "type": "Point",
       "coordinates":  [ -72.7347545,42.8390545 ]
    },
    "properties": {
    "NAME":"Marlboro College"
    }
  },
  {
    "type": "Feature",
    "geometry": {
       "type": "Point",
       "coordinates":  [ -76.9852164,42.8581166 ]
    },
    "properties": {
    "NAME":"Hobart and William Smith Colleges"
    }
  },
  {
    "type": "Feature",
    "geometry": {
       "type": "Point",
       "coordinates":  [ -73.2359361,42.9203078 ]
    },
    "properties": {
    "NAME":"Bennington College"
    }
  },
  {
    "type": "Feature",
    "geometry": {
       "type": "Point",
       "coordinates":  [ -72.2822698,42.9249987 ]
    },
    "properties": {
    "NAME":"Keene State College"
    }
  },
  {
    "type": "Feature",
    "geometry": {
       "type": "Point",
       "coordinates":  [ -85.5889329,42.9295084 ]
    },
    "properties": {
    "NAME":"Calvin College"
    }
  },
  {
    "type": "Feature",
    "geometry": {
       "type": "Point",
       "coordinates":  [ -78.8818886,42.9335369 ]
    },
    "properties": {
    "NAME":"Buffalo State College"
    }
  },
  {
    "type": "Feature",
    "geometry": {
       "type": "Point",
       "coordinates":  [ -85.8889465,42.9639355 ]
    },
    "properties": {
    "NAME":"Grand Valley State University"
    }
  },
  {
    "type": "Feature",
    "geometry": {
       "type": "Point",
       "coordinates":  [ -78.7884384,42.9648902 ]
    },
    "properties": {
    "NAME":"Daemen College"
    }
  },
  {
    "type": "Feature",
    "geometry": {
       "type": "Point",
       "coordinates":  [ -72.5118469,42.9767642 ]
    },
    "properties": {
    "NAME":"Landmark College"
    }
  },
  {
    "type": "Feature",
    "geometry": {
       "type": "Point",
       "coordinates":  [ -71.5072307,42.9874723 ]
    },
    "properties": {
    "NAME":"Saint Anselm College"
    }
  },
  {
    "type": "Feature",
    "geometry": {
       "type": "Point",
       "coordinates":  [ -83.6894611,43.0194791 ]
    },
    "properties": {
    "NAME":"University of Michigan-Flint"
    }
  },
  {
    "type": "Feature",
    "geometry": {
       "type": "Point",
       "coordinates":  [ -76.1369148,43.0344612 ]
    },
    "properties": {
    "NAME":"SUNY ESF (College of Environmental Science and Forestry)"
    }
  },
  {
    "type": "Feature",
    "geometry": {
       "type": "Point",
       "coordinates":  [ -87.9297546,43.0382216 ]
    },
    "properties": {
    "NAME":"Marquette University"
    }
  },
  {
    "type": "Feature",
    "geometry": {
       "type": "Point",
       "coordinates":  [ -76.1351158,43.0391534 ]
    },
    "properties": {
    "NAME":"Syracuse University"
    }
  },
  {
    "type": "Feature",
    "geometry": {
       "type": "Point",
       "coordinates":  [ -75.4057949,43.0524261 ]
    },
    "properties": {
    "NAME":"Hamilton College"
    }
  },
  {
    "type": "Feature",
    "geometry": {
       "type": "Point",
       "coordinates":  [ -89.423378,43.060689 ]
    },
    "properties": {
    "NAME":"Edgewood College"
    }
  },
  {
    "type": "Feature",
    "geometry": {
       "type": "Point",
       "coordinates":  [ -89.4124875,43.076592 ]
    },
    "properties": {
    "NAME":"University of Wisconsin - Madison"
    }
  },
  {
    "type": "Feature",
    "geometry": {
       "type": "Point",
       "coordinates":  [ -87.8819686,43.078263 ]
    },
    "properties": {
    "NAME":"University of Wisconsin- Milwaukee"
    }
  },
  {
    "type": "Feature",
    "geometry": {
       "type": "Point",
       "coordinates":  [ -73.7841811,43.0972759 ]
    },
    "properties": {
    "NAME":"Skidmore College"
    }
  },
  {
    "type": "Feature",
    "geometry": {
       "type": "Point",
       "coordinates":  [ -77.520027,43.1030175 ]
    },
    "properties": {
    "NAME":"Nazareth College of Rochester"
    }
  },
  {
    "type": "Feature",
    "geometry": {
       "type": "Point",
       "coordinates":  [ -77.6260033,43.1305531 ]
    },
    "properties": {
    "NAME":"University of Rochester"
    }
  },
  {
    "type": "Feature",
    "geometry": {
       "type": "Point",
       "coordinates":  [ -70.9370252,43.138948 ]
    },
    "properties": {
    "NAME":"University of New Hampshire Durham"
    }
  },
  {
    "type": "Feature",
    "geometry": {
       "type": "Point",
       "coordinates":  [ -91.8062533,43.311063 ]
    },
    "properties": {
    "NAME":"Luther College"
    }
  },
  {
    "type": "Feature",
    "geometry": {
       "type": "Point",
       "coordinates":  [ -84.669939,43.379011 ]
    },
    "properties": {
    "NAME":"Alma College"
    }
  },
  {
    "type": "Feature",
    "geometry": {
       "type": "Point",
       "coordinates":  [ -70.3865402,43.4582904 ]
    },
    "properties": {
    "NAME":"University of New England"
    }
  },
  {
    "type": "Feature",
    "geometry": {
       "type": "Point",
       "coordinates":  [ -73.2442058,43.5167448 ]
    },
    "properties": {
    "NAME":"Green Mountain College"
    }
  },
  {
    "type": "Feature",
    "geometry": {
       "type": "Point",
       "coordinates":  [ -96.7396893,43.5226043 ]
    },
    "properties": {
    "NAME":"Augustana College-SD"
    }
  },
  {
    "type": "Feature",
    "geometry": {
       "type": "Point",
       "coordinates":  [ -70.2756936,43.6622484 ]
    },
    "properties": {
    "NAME":"University of Southern Maine"
    }
  },
  {
    "type": "Feature",
    "geometry": {
       "type": "Point",
       "coordinates":  [ -72.2886935,43.7044406 ]
    },
    "properties": {
    "NAME":"Dartmouth College"
    }
  },
  {
    "type": "Feature",
    "geometry": {
       "type": "Point",
       "coordinates":  [ -88.421463,43.777902 ]
    },
    "properties": {
    "NAME":"Marian University of Fond Du Lac"
    }
  },
  {
    "type": "Feature",
    "geometry": {
       "type": "Point",
       "coordinates":  [ -91.2311516,43.8160517 ]
    },
    "properties": {
    "NAME":"University of Wisconsin - la Crosse"
    }
  },
  {
    "type": "Feature",
    "geometry": {
       "type": "Point",
       "coordinates":  [ -69.9652364,43.9070109 ]
    },
    "properties": {
    "NAME":"Bowdoin College"
    }
  },
  {
    "type": "Feature",
    "geometry": {
       "type": "Point",
       "coordinates":  [ -73.1773152,44.0082595 ]
    },
    "properties": {
    "NAME":"Middlebury College"
    }
  },
  {
    "type": "Feature",
    "geometry": {
       "type": "Point",
       "coordinates":  [ -92.4634778,44.0224899 ]
    },
    "properties": {
    "NAME":"University of Minnesota-Rochester"
    }
  },
  {
    "type": "Feature",
    "geometry": {
       "type": "Point",
       "coordinates":  [ -123.0726055,44.0448302 ]
    },
    "properties": {
    "NAME":"University of Oregon"
    }
  },
  {
    "type": "Feature",
    "geometry": {
       "type": "Point",
       "coordinates":  [ -70.2021865,44.1057216 ]
    },
    "properties": {
    "NAME":"Bates College"
    }
  },
  {
    "type": "Feature",
    "geometry": {
       "type": "Point",
       "coordinates":  [ -72.6612317,44.1390054 ]
    },
    "properties": {
    "NAME":"Norwich University"
    }
  },
  {
    "type": "Feature",
    "geometry": {
       "type": "Point",
       "coordinates":  [ -88.3980999,44.2615759 ]
    },
    "properties": {
    "NAME":"Lawrence University"
    }
  },
  {
    "type": "Feature",
    "geometry": {
       "type": "Point",
       "coordinates":  [ -72.4380985,44.2789722 ]
    },
    "properties": {
    "NAME":"Goddard College"
    }
  },
  {
    "type": "Feature",
    "geometry": {
       "type": "Point",
       "coordinates":  [ -93.9687771,44.3221619 ]
    },
    "properties": {
    "NAME":"Gustavus Adolphus College"
    }
  },
  {
    "type": "Feature",
    "geometry": {
       "type": "Point",
       "coordinates":  [ -68.2225669,44.394424 ]
    },
    "properties": {
    "NAME":"College of the Atlantic"
    }
  },
  {
    "type": "Feature",
    "geometry": {
       "type": "Point",
       "coordinates":  [ -88.066303,44.444875 ]
    },
    "properties": {
    "NAME":"St. Norbert College"
    }
  },
  {
    "type": "Feature",
    "geometry": {
       "type": "Point",
       "coordinates":  [ -93.1558264,44.4613654 ]
    },
    "properties": {
    "NAME":"Carleton College"
    }
  },
  {
    "type": "Feature",
    "geometry": {
       "type": "Point",
       "coordinates":  [ -93.1828167,44.4617681 ]
    },
    "properties": {
    "NAME":"St. Olaf College"
    }
  },
  {
    "type": "Feature",
    "geometry": {
       "type": "Point",
       "coordinates":  [ -73.2041352,44.4731165 ]
    },
    "properties": {
    "NAME":"Champlain College"
    }
  },
  {
    "type": "Feature",
    "geometry": {
       "type": "Point",
       "coordinates":  [ -73.1964637,44.4778528 ]
    },
    "properties": {
    "NAME":"University of Vermont"
    }
  },
  {
    "type": "Feature",
    "geometry": {
       "type": "Point",
       "coordinates":  [ -73.181707,44.4913011 ]
    },
    "properties": {
    "NAME":"Community College of Vermont"
    }
  },
  {
    "type": "Feature",
    "geometry": {
       "type": "Point",
       "coordinates":  [ -123.2794443,44.5637806 ]
    },
    "properties": {
    "NAME":"Oregon State University"
    }
  },
  {
    "type": "Feature",
    "geometry": {
       "type": "Point",
       "coordinates":  [ -69.6626362,44.5638691 ]
    },